BioComment,JRH_Final_Ref_Cod,DataSource,StationID,UID,Latitude,Longitude,Sta_Desc,US_L3CODE,US_L3NAME,US_L4CODE,US_L4NAME,VAHU6,ASSESS_REG,OFFICE_NM,VaName,Tidal,VAHUSB,FedName,HUC10,Basin,BASIN_CODE,Basin_Code,CountyCityName,FIPS,BASINS_HUC_12,WQS_ID,WQS_CLASS,WQS_SPSTDS,WQS_PWS,WQS_TROUT,WQS_TIER_III,Order,totalArea_sqMile,ELEVMIN,ELEVMAX,ELEVMEAN,ELEVSD,ELEVRANGE,SLPMIN,SLPMAX,SLPMEAN,SLPSD,SLPRANGE,wshdRain_mmyr,siteRain_mmyr,wshdRain_inyr,siteRain_inyr,wshedRain_inyr
,Str,VDEQ_BUG,2-BIO000.45,,37.60972222,-78.2075,Bigger Creek @ rt 615,45,Piedmont,45f,Northern Outer Piedmont,JM70,PRO,Piedmont,Willis River-Trice Lake,N,JM,Trice Lake-Willis River,0208020503,James River Basin,2B,James-Middle,Cumberland,049,020802050303,RL_2B_159578,III, ,,,,,,,,,,,,,,,,,,,,
,Str,VDEQ_BUG,4ABDB000.75,,36.87777778,-79.05416667,Bradley Cr @ rt 628,45,Piedmont,45e,Northern Inner Piedmont,RD62,BRRO,Blue Ridge,Banister River-Bye Creek,N,RD,Bye Creek-Banister River,0301010502,Roanoke River Basin,4A,Roanoke,Halifax,083,030101050207,RL_4A_095396,III,PWS,Yes,,,,,,,,,,,,,,,,,,,
,Str,VDEQ_BUG,4ABDB004.35,4ABDB004.35_2012,36.90558333,-79.04608333,Bradley Ck north of 621,45,Piedmont,45e,Northern Inner Piedmont,RD62,BRRO,Blue Ridge,Banister River-Bye Creek,N,RD,Bye Creek-Banister River,0301010502,Roanoke River Basin,4A,Roanoke,Halifax,083,030101050207,,,,,,,2,3.732498956,121,205,171.137189,17.06834199,84,0,18.57048607,5.094912209,2.836967765,18.57048607,1097.29,1097.29,43.20041703,43.20041703,
,Str,VDEQ_BUG,4ABHB011.31,,36.727947,-78.4504,upstream of Mecklenburg Co landfill,45,Piedmont,45c,Carolina Slate Belt,RL07,BRRO,Blue Ridge,Butcher Creek/John H Kerr Reservoir,N,RL,Butcher Creek,0301010209,Roanoke River Basin,4A,Roanoke,Mecklenburg,117,030101020904,RL_4A_130446,III,PWS,Yes,,,,,,,,,,,,,,,,,,,
,Str,VDEQ_BUG,4ABKN000.52,,36.77694444,-79.45916667,Bearskin Cr. @ rt 703 Tight Sqz. Rd,45,Piedmont,45e,Northern Inner Piedmont,RD53,BRRO,Blue Ridge,Bearskin Creek,N,RD,Bearskin Creek,0301010501,Roanoke River Basin,4A,Roanoke,Pittsylvania,143,030101050102,RL_4A_082892,III,PWS,Yes,,,,,,,,,,,,,,,,,,,
,Str,VDEQ_BUG,4ABMA005.64,,36.60051944,-78.66453889,Buffalo Ck upstrm of Hicks Sp Br Rte 735,45,Piedmont,45c,Carolina Slate Belt,RD77,BRRO,Blue Ridge,Dan River/John H Kerr Reservoir-Buffalo Creek,N,RD,Buffalo Creek-Dan River,0301010407,Roanoke River Basin,4A,Roanoke,Mecklenburg,117,030101040704,RL_4A_097996,III,PWS,Yes,,,,,,,,,,,,,,,,,,,
,Str,VDEQ_BUG,4ABNN002.17,4ABNN002.17_2012,36.79988889,-78.63827778,Buffalo Creek upstream of 608,45,Piedmont,45c,Carolina Slate Belt,RU87,BRRO,Blue Ridge,Roanoke River-John H Kerr Reservoir-Buffalo Creek,N,RU,Sandy Creek-Roanoke River,0301010206,Roanoke River Basin,4A,Roanoke,Charlotte,037,030101020601,RL_4A_099980,III,PWS,Yes,,,2,2.381708416,106,159,130.4891992,10.7352489,53,0,11.08965778,2.9576582830000002,1.617944558,11.08965778,1085.44,1085.44,42.73388134,42.73388134,
,Str,VDEQ_BUG,4ABNN002.17,4ABNN002.17_2014,36.79988889,-78.63827778,Buffalo Creek upstream of 608,45,Piedmont,45c,Carolina Slate Belt,RU87,BRRO,Blue Ridge,Roanoke River-John H Kerr Reservoir-Buffalo Creek,N,RU,Sandy Creek-Roanoke River,0301010206,Roanoke River Basin,4A,Roanoke,Charlotte,037,030101020601,RL_4A_099980,III,PWS,Yes,,,2,2.381708416,106,159,130.4891992,10.7352489,53,0,11.08965778,2.9576582830000002,1.617944558,11.08965778,1085.44,1085.44,42.73388134,42.73388134,
,Str,VDEQ_BUG,4ABNN002.17,4ABNN002.17_2016,36.79988889,-78.63827778,Buffalo Creek upstream of 608,45,Piedmont,45c,Carolina Slate Belt,RU87,BRRO,Blue Ridge,Roanoke River-John H Kerr Reservoir-Buffalo Creek,N,RU,Sandy Creek-Roanoke River,0301010206,Roanoke River Basin,4A,Roanoke,Charlotte,037,030101020601,RL_4A_099980,III,PWS,Yes,,,2,2.381708416,106,159,130.4891992,10.7352489,53,0,11.08965778,2.9576582830000002,1.617944558,11.08965778,1085.44,1085.44,42.73388134,42.73388134,
,Str,VDEQ_BUG,4ABNN002.17,4ABNN002.17_2018,36.79988889,-78.63827778,Buffalo Creek upstream of 608,45,Piedmont,45c,Carolina Slate Belt,RU87,BRRO,Blue Ridge,Roanoke River-John H Kerr Reservoir-Buffalo Creek,N,RU,Sandy Creek-Roanoke River,0301010206,Roanoke River Basin,4A,Roanoke,Charlotte,037,030101020601,RL_4A_099980,III,PWS,Yes,,,2,2.381708416,106,159,130.4891992,10.7352489,53,0,11.08965778,2.9576582830000002,1.617944558,11.08965778,1085.44,1085.44,42.73388134,42.73388134,
,Str,VDEQ_BUG,4ACAN000.80,,36.54055556,-79.26333333,Cane Cr. @ Cedar Rd (NC RTE 1530),45,Piedmont,45e,Northern Inner Piedmont,RD41,BRRO,Blue Ridge,Dan River-Cane Creek,N,RD,Cane Creek-Dan River,0301010401,Roanoke River Basin,4A,Roanoke,,,030101040109,RL_4A_083981,III,,,,,,,,,,,,,,,,,,,,,
,Str,VDEQ_BUG,4ADAN021.36,,36.6665,-78.986694,Dan River downstream of News Ferry,45,Piedmont,45e,Northern Inner Piedmont,RD49,BRRO,Blue Ridge,Dan River-Chalmers Creek,N,RD,Chalmers Creek-Dan River,0301010404,Roanoke River Basin,4A,Roanoke,Halifax,083,030101040402,RL_4A_093912,III,,,,,,,,,,,,,,,,,,,,,
,Str,VDEQ_BUG,4ADAN027.56,,36.65297222,-79.08619444,Dan R. east of Rt 691 near Paces,45,Piedmont,45e,Northern Inner Piedmont,RD46,BRRO,Blue Ridge,Dan River-Big Toby Creek,N,RD,Big Toby Creek-Dan River,0301010403,Roanoke River Basin,4A,Roanoke,Halifax,083,030101040304,,,,,,,,,,,,,,,,,,,,,,,
,Str,VDEQ_BUG,4ADAN075.22,,36.54166667,-79.60516667,RT. 880 BRIDGE AT STATE LINE,45,Piedmont,45g,Triassic Basins,RD32,BRRO,Blue Ridge,Dan River-Trotters Creek,N,RD,Trotters Creek-Dan River,0301010309,Roanoke River Basin,4A,Roanoke,Pittsylvania,143,030101030903,RL_4A_056515,III,PWS,Yes,,,,,,,,,,,,,,,,,,,
,Str,VDEQ_BUG,4AENT001.64,,37.14583333,-78.895,Entry Cr @ rt 601,45,Piedmont,45e,Northern Inner Piedmont,RU70,BRRO,Blue Ridge,Little Falling River-Entry Creek,N,RU,Entry Creek-Little Falling River,0301010202,Roanoke River Basin,4A,Roanoke,Campbell,031,030101020206,RL_4A_104563,III,,,,,,,,,,,,,,,,,,,,,
,Str,VDEQ_BUG,4AFAL000.92,4AFAL000.92_2008,36.59251667,-79.37823333,"Fall Creek near E. Thomas St. (Rt. 655),",45,Piedmont,45e,Northern Inner Piedmont,RD38,BRRO,Blue Ridge,Fall Creek,N,RD,Fall Creek,0301010401,Roanoke River Basin,4A,Roanoke,Danville,590,030101040101,RL_4A_081595,III,,,,,4,36.84144326,121,355,194.8627543,27.9828131,234,0,17.92007446,3.642443298,1.973916521,17.92007446,11101.17,437.054173,,43.27285801,1099.13
,Str,VDEQ_BUG,4AFLT002.60,,36.63166667,-78.17166667,Flat Creek @ rt 630 bridge(Belfield Rd.),45,Piedmont,45f,Northern Outer Piedmont,RL14,BRRO,Blue Ridge,Lake Gaston-Flat Creek,N,RL,Flat Creek-Lake Gaston,0301010602,Roanoke River Basin,4A,Roanoke,Mecklenburg,117,030101060203,RL_4A_133227,III,PWS,Yes,,,,,,,,,,,,,,,,,,,
,Str,VDEQ_BUG,4AGRT003.82,,36.59305555,-78.09083333,"GREAT CREEK, RT. 619 BRIDGE",45,Piedmont,45f,Northern Outer Piedmont,RL18,BRRO,Blue Ridge,Roanoke River/Lake Gaston-Great Creek,N,RL,Great Creek-Lake Gaston,0301010603,Roanoke River Basin,4A,Roanoke,Mecklenburg,117,030101060302,RL_4A_133022,III,PWS,Yes,,,,,,,,,,,,,,,,,,,
,Str,VDEQ_BUG,4AGSY004.60,,36.64972222,-78.87055556,Grassy Cr @ rt 744,45,Piedmont,45e,Northern Inner Piedmont,RD51,BRRO,Blue Ridge,Dan River-John H Kerr Reservoir-Grassy Creek,N,RD,Grassy Creek-Dan River,0301010404,Roanoke River Basin,4A,Roanoke,Halifax,083,030101040404,RL_4A_094772,III,,,,,,,,,,,,,,,,,,,,,
,Str,VDEQ_BUG,4AHEN004.27,,36.92638889,-78.63611111,Horsepen Cr @ rt 612,45,Piedmont,45c,Carolina Slate Belt,RU85,BRRO,Blue Ridge,Horsepen Creek,N,RU,Horsepen Creek,0301010205,Roanoke River Basin,4A,Roanoke,Charlotte,037,030101020505,RL_4A_106730,III,PWS,Yes,,,,,,,,,,,,,,,,,,,
,Str,VDEQ_BUG,4ALAR000.00,,36.63610833,-78.80662778,Larkin Br hike to just upstrm of Hyco R,45,Piedmont,45c,Carolina Slate Belt,RD74,BRRO,Blue Ridge,Hyco River/John H Kerr Reservoir-Larkin Branch,N,RD,Larkin Branch-Hyco River,0301010406,Roanoke River Basin,4A,Roanoke,Halifax,083,030101040608,RL_4A_097546,III,PWS,Yes,,,,,,,,,,,,,,,,,,,
,Str,VDEQ_BUG,4ALFF001.85,,36.62638889,-78.62888889,"LITTLE BUFFALO CREEK, RT 58 BRIDGE",45,Piedmont,45c,Carolina Slate Belt,RD77,BRRO,Blue Ridge,Dan River/John H Kerr Reservoir-Buffalo Creek,N,RD,Buffalo Creek-Dan River,0301010407,Roanoke River Basin,4A,Roanoke,Mecklenburg,117,030101040704,RL_4A_098318,III,PWS,Yes,,,,,,,,,,,,,,,,,,,
,Str,VDEQ_BUG,4ALWN000.88,,36.59383333,-78.83430556,Little Bluewing Ck @ Rte 740 Wilson Rd,45,Piedmont,45c,Carolina Slate Belt,RD73,BRRO,Blue Ridge,Big Bluewing Creek,N,RD,Big Bluewing Creek,0301010406,Roanoke River Basin,4A,Roanoke,Halifax,083,030101040607,RL_4A_094431,III,PWS,Yes,,,,,,,,,,,,,,,,,,,
,Str,VDEQ_BUG,4ALYT003.77,,36.73166667,-78.32333333,"LAYTONS CREEK, RT. 671 BRIDGE",45,Piedmont,45c,Carolina Slate Belt,RL10,BRRO,Blue Ridge,Allen Creek-Layton Creek,N,RL,Layton Creek-Allen Creek,0301010601,Roanoke River Basin,4A,Roanoke,Mecklenburg,117,030101060101,RL_4A_131279,III,PWS,Yes,,,,,,,,,,,,,,,,,,,
,Str,VDEQ_BUG,4AMES006.61,,36.676872,-78.218352,upstream of Hwy 58,45,Piedmont,45f,Northern Outer Piedmont,RL13,BRRO,Blue Ridge,Miles Creek-Dockery Creek,N,RL,Dockery Creek-Miles Creek,0301010602,Roanoke River Basin,4A,Roanoke,Mecklenburg,117,030101060202,RL_4A_132546,III,PWS,Yes,,,,,,,,,,,,,,,,,,,
,Str,VDEQ_BUG,4AMEY016.00,4AMEY016.00_2007,37.25027778,-79.08861111,"PRIVATE ROAD OFF RT. 655, BELOW RUSTBURG",45,Piedmont,45e,Northern Inner Piedmont,RU68,BRRO,Blue Ridge,Mollys Creek,N,RU,Mollys Creek,0301010202,Roanoke River Basin,4A,Roanoke,Campbell,031,030101020204,RL_4A_092842,III,,,,,2,2.682290306,219,381,261.5428738,19.04082805,162,0,23.09424019,4.318361781,2.729481483,23.09424019,1069.56,42.10868416,,42.10868416,1069.56
,Str,VDEQ_BUG,4APDA000.35,,36.69558333,-78.90756667,"Poplar Creek near Summit Rd. brg, S. Bo",45,Piedmont,45e,Northern Inner Piedmont,RD51,BRRO,Blue Ridge,Dan River-John H Kerr Reservoir-Grassy Creek,N,RD,Grassy Creek-Dan River,0301010404,Roanoke River Basin,4A,Roanoke,Halifax,083,030101040404,RL_4A_094588,III,,,,,,,,,,,,,,,,,,,,,
,Str,VDEQ_BUG,4ARAC000.92,,36.70166667,-78.88638889,Reedy Cr @ Ash St- SoBo,45,Piedmont,45e,Northern Inner Piedmont,RD51,BRRO,Blue Ridge,Dan River-John H Kerr Reservoir-Grassy Creek,N,RD,Grassy Creek-Dan River,0301010404,Roanoke River Basin,4A,Roanoke,Halifax,083,030101040404,RL_4A_094802,III,,,,,,,,,,,,,,,,,,,,,
,Str,VDEQ_BUG,4ARUT000.45,4ARUT000.45_2011,36.55644445,-79.41636111,"Rutledge Cr @ Edmunds St, Danville",45,Piedmont,45e,Northern Inner Piedmont,RD39,BRRO,Blue Ridge,Dan River-Pumpkin Creek,N,RD,Pumpkin Creek-Dan River,0301010401,Roanoke River Basin,4A,Roanoke,Danville,590,030101040102,RL_4A_081224,III,,,,,2,3.756735392,134,220,177.4385041,17.05707278,86,0,15.07703114,4.356595819,2.133403139,15.07703114,1102.41,43.40199194,,43.37915728,1101.83
,Str,VDEQ_BUG,4ASCK003.10,,36.843578,-79.246647,Shockoe Ck @ Rte 895,45,Piedmont,45g,Triassic Basins,RD58,BRRO,Blue Ridge,Banister River-Shockoe Creek,N,RD,Shockoe Creek-Banister River,0301010502,Roanoke River Basin,4A,Roanoke,Pittsylvania,143,030101050203,RL_4A_086385,III,,,,,,,,,,,,,,,,,,,,,
,Str,VDEQ_BUG,4AXVK001.44,4AXVK001.44_2009,37.15405278,-78.86138889,ut Entry Cr w of 600 s of 639,45,Piedmont,45e,Northern Inner Piedmont,RU70,BRRO,Blue Ridge,Little Falling River-Entry Creek,N,RU,Entry Creek-Little Falling River,0301010202,Roanoke River Basin,4A,Roanoke,Campbell,031,030101020206,,,,,,,1,0.182816184,197,215,207.382906,3.829014381,18,0,5.26454401,1.740713081,1.000252394,5.26454401,2187.72,1092.77,86.13075517,43.02246418,
,Str,VDEQ_BUG,4AXVO000.50,4AXVO000.50_2012,37.075,-78.52727778,UT Spencer just west of Rte 653,45,Piedmont,45f,Northern Outer Piedmont,RU81,BRRO,Blue Ridge,Roanoke Creek-Spring Creek,N,RU,Spring Creek-Roanoke Creek,0301010205,Roanoke River Basin,4A,Roanoke,Charlotte,037,030101020501,RL_4A_136334,III,PWS,Yes,,,1,1.269252795,137,208,172.6388614,15.25417317,71,0,17.41501617,4.078945759,2.36898453,17.41501617,3273.25,1090.23,128.8681798,42.92246412,
,Ref-Pied?,VDEQ_BUG,2-BUF026.43,,37.658653,-79.144629,Buffalo River @ Rt 60,45,Piedmont,45e,Northern Inner Piedmont,JM28,BRRO,Blue Ridge,Buffalo River-North Fork Buffalo River,N,JM,North Fork Buffalo River-Buffalo River,0208020306,James River Basin,2B,James-Middle,Amherst,009,020802030601,RL_2B_116675,III, ,,,,,,,,,,,,,,,,,,,,
,Ref-Pied?,VDEQ_BUG,4ACRE008.60,4ACRE008.60_2017,36.975056,-79.001083,Childrey Ck just DS of Hwy 40,45,Piedmont,45e,Northern Inner Piedmont,RU72,BRRO,Blue Ridge,Roanoke River-Childrey Creek,N,RU,Childrey Creek-Roanoke River,0301010204,Roanoke River Basin,4A,Roanoke,Halifax,083,030101020401,RL_4A_101699,III,PWS,Yes,,,3,15.55161215,134,217,178.7668228,14.83393261,83,0,16.69365501,4.043643336,2.274083627,16.69365501,4398.2,1100.16,173.1575738,43.31340922,
,Ref-Pied?,VDEQ_BUG,4ACRE008.75,,36.97416667,-79.00361111,Childrey Cr @ State Shed Rd (rt 645),45,Piedmont,45e,Northern Inner Piedmont,RU72,BRRO,Blue Ridge,Roanoke River-Childrey Creek,N,RU,Childrey Creek-Roanoke River,0301010204,Roanoke River Basin,4A,Roanoke,Halifax,083,030101020401,RL_4A_101699,III,PWS,Yes,,,,,,,,,,,,,,,,,,,
,Ref-Pied?,VDEQ_BUG,4ADBC002.19,,36.63166667,-79.17666667,"DOUBLE CREEK, RT. 688 BRIDGE",45,Piedmont,45e,Northern Inner Piedmont,RD44,BRRO,Blue Ridge,Dan River-Double Creek,N,RD,Double Creek-Dan River,0301010403,Roanoke River Basin,4A,Roanoke,Halifax,083,030101040302,RL_4A_084766,III,,,,,,,,,,,,,,,,,,,,,
,Ref-Pied?,VDEQ_BUG,4ADEV000.64,4ADEV000.64_2011,36.849,-78.53697222,Devils Br S of Rt 603,45,Piedmont,45c,Carolina Slate Belt,RU91,BRRO,Blue Ridge,Bluestone Creek-Otter Creek,N,RU,Otter Creek-Bluestone Creek,0301010207,Roanoke River Basin,4A,Roanoke,Charlotte,037,030101020701,,,,,,,2,4.868823443,132,182,160.0178076,8.903937677,50,0,13.27113724,3.14067831,1.696022181,13.27113724,2189.1,1094.49,86.18508591,43.09018075,
,Ref-Pied?,VDEQ_BUG,4AEKH003.68,,36.86969444,-79.15088889,"Elkhorn Cr @ rt 680, Church Rd",45,Piedmont,45e,Northern Inner Piedmont,RD61,BRRO,Blue Ridge,Elkhorn Creek,N,RD,Elkhorn Creek,0301010502,Roanoke River Basin,4A,Roanoke,Pittsylvania,143,030101050206,RL_4A_086985,III,,,,,,,,,,,,,,,,,,,,,
,Ref-Pied?,VDEQ_BUG,4AWRN000.43,,36.87666667,-79.24833333,"RT 683, CEDAR HILL ROAD?",45,Piedmont,45g,Triassic Basins,RD57,BRRO,Blue Ridge,Whitehorn Creek-Georges Creek,N,RD,Georges Creek-Whitehorn Creek,0301010502,Roanoke River Basin,4A,Roanoke,Pittsylvania,143,030101050202,RL_4A_086474,III,,,,,,,,,,,,,,,,,,,,,
,Ref-Pied?,VDEQ_BUG,4AXVN001.55,4AXVN001.55_2010,36.87890278,-78.84780278,UT Difficult SW of Wests Store,45,Piedmont,45e,Northern Inner Piedmont,RU88,BRRO,Blue Ridge,Difficult Creek-Piney Creek,N,RU,Piney Creek-Difficult Creek,0301010206,Roanoke River Basin,4A,Roanoke,Halifax,083,030101020602,,,,,,,1,1.179767357,137,179,162.7670394,8.947087535,42,0,12.78812885,3.161218541,1.682602473,12.78812885,4377.41,1093.46,172.3390694,43.04962955,
,Ref-Pied?,VDEQ_BUG,4AXVP000.20,4AXVP000.20_2013,36.61938889,-79.35177778,"UT Little Fall Ck W of 729, East of 360",45,Piedmont,45e,Northern Inner Piedmont,RD38,BRRO,Blue Ridge,Fall Creek,N,RD,Fall Creek,0301010401,Roanoke River Basin,4A,Roanoke,Pittsylvania,143,030101040101,RL_4A_081562,III,,,,,1,0.202326201,158,210,187.0808709,11.04887152,52,0,9.474884987,3.687875087,1.748443157,9.474884987,2204.48,1102.24,86.79059805,43.39529902,
,Ref?,VDEQ_BUG,2-BNF003.52,2-BNF003.52_2001,37.71877222,-79.20181111,Along Rt. 635 in Nat. For.,66,Blue Ridge,66a,Northern Igneous Ridges,JM28,BRRO,Blue Ridge,Buffalo River-North Fork Buffalo River,N,JM,North Fork Buffalo River-Buffalo River,0208020306,James River Basin,2B,James-Middle,Amherst,009,020802030601,,,,,,,2,5.687559042,453,1235,915.495307,173.7650205,782,0.355126977,41.56312943,19.67894496,6.899972432,41.20800245,1050.61,1050.61,41.36262076,41.36262076,
,Ref?,VDEQ_BUG,2-WIC005.69,,37.4747,-78.8972,Wreck Island Ck @ Rte 683,45,Piedmont,45e,Northern Inner Piedmont,JM16,BRRO,Blue Ridge,Wreck Island Creek,N,JM,Wreck Island Creek,0208020304,James River Basin,2B,James-Middle,Appomattox,011,020802030404,RL_2B_120205,III, ,,,,,,,,,,,,,,,,,,,,
,Ref?,VDEQ_BUG,2-PRB000.53,,37.3746,-78.792,Plain Run Br @ Rte 627,45,Piedmont,45e,Northern Inner Piedmont,JA01,PRO,Piedmont,Appomattox River-Wolf Creek,N,JA,Wolf Creek-Appomattox River,0208020702,James River Basin,2D,Appomattox,Appomattox,011,020802070201,RL_2D_121273,III, ,,,,,,,,,,,,,,,,,,,,
,Ref?,VDEQ_BUG,2-FSP000.53,,37.369355,-78.645578,"FISHPOND CR., RT 617",45,Piedmont,45e,Northern Inner Piedmont,JA03,PRO,Piedmont,Appomattox River-Fishpond Creek,N,JA,Fishpond Creek-Appomattox River,0208020702,James River Basin,2D,Appomattox,Appomattox,011,020802070203,RL_2D_121887,III, ,,,,,,,,,,,,,,,,,,,,
,Ref?,VDEQ_BUG,2-RGH000.35,,37.33583333,-78.69611111,Rt. 627 bridge,45,Piedmont,45e,Northern Inner Piedmont,JA02,PRO,Piedmont,Appomattox River-Suanee Creek,N,JA,Suanee Creek-Appomattox River,0208020702,James River Basin,2D,Appomattox,Appomattox,011,020802070202,RL_2D_121018,III, ,,,,,,,,,,,,,,,,,,,,
,Ref?,VDEQ_BUG,4ACRR011.77,,36.9002,-79.45780556,Cherrystone Ck US of trib crossing 798,45,Piedmont,45e,Northern Inner Piedmont,RD55,BRRO,Blue Ridge,Cherrystone Creek,N,RD,Cherrystone Creek,0301010501,Roanoke River Basin,4A,Roanoke,Pittsylvania,143,030101050104,RL_4A_083320,III,PWS,Yes,,,,,,,,,,,,,,,,,,,
,Ref?,VDEQ_BUG,4ALLC002.18,,37.0315,-79.3066,Little Sycamore at Rt 653,45,Piedmont,45e,Northern Inner Piedmont,RU47,BRRO,Blue Ridge,Sycamore Creek-Little Sycamore Creek,N,RU,Little Sycamore Creek-Sycamore Creek,0301010113,Roanoke River Basin,4A,Roanoke,Pittsylvania,143,030101011304,RL_4A_090201,III,PWS,Yes,,,,,,,,,,,,,,,,,,,
,Ref?,VDEQ_BUG,4ARAC002.09,,36.9018,-78.7655,Reedy Creek at Lloyds Mill Rd. (Rt. 780),45,Piedmont,45e,Northern Inner Piedmont,RU80,BRRO,Blue Ridge,Roanoke River-Hunting Creek,N,RU,Hunting Creek-Roanoke River,0301010204,Roanoke River Basin,4A,Roanoke,Halifax,083,030101020405,RL_4A_099586,III,PWS,Yes,,,,,,,,,,,,,,,,,,,
,Ref,VDEQ_BUG,2BBKF002.05,,37.44177778,-78.87219444,Blackfoot Creek @ Rte 665,45,Piedmont,45e,Northern Inner Piedmont,JM16,BRRO,Blue Ridge,Wreck Island Creek,N,JM,Wreck Island Creek,0208020304,James River Basin,2B,James-Middle,Appomattox,011,020802030404,RL_2B_119163,III, ,,,,,,,,,,,,,,,,,,,,
,Ref,VDEQ_BUG,2BBUF006.39,2BBUF006.39_2018,37.574986,-78.950072,Buffalo R West of Banton Lane,45,Piedmont,45e,Northern Inner Piedmont,JM31,BRRO,Blue Ridge,Buffalo River-Rocky Creek,N,JM,Rocky Creek-Buffalo River,0208020306,James River Basin,2B,James-Middle,Amherst,009,020802030604,RL_2B_120100,III, ,,,,4,139.1434095,145,1235,317.7578384,186.5330028,1090,0,41.93174744,10.01923027,7.03389529,41.93174744,40969.35,1120.91,1612.967406,44.13033879,
,Ref,VDEQ_BUG,2-BCR007.68,2-BCR007.68_2012,37.32308333,-79.10047222,Beaver Ck just downstream of Hwy 501,45,Piedmont,45e,Northern Inner Piedmont,JM12,BRRO,Blue Ridge,Beaver Creek,N,JM,Beaver Creek,0208020303,James River Basin,2B,James-Middle,Campbell,031,020802030306,,,,,,,3,16.64214195,186,429,266.3591573,30.97661459,243,0,34.52370071,5.724461044,3.678543144,34.52370071,5292.9,1063.67,208.3820023,41.87679427,
,Ref,VDEQ_BUG,2BXBA000.52,2BXBA000.52_2017,37.416333,-79.009361,UT Joshua South of Pinecrest Ln,45,Piedmont,45e,Northern Inner Piedmont,JM13,BRRO,Blue Ridge,James River-Archer Creek,N,JM,Archer Creek-James River,0208020304,James River Basin,2B,James-Middle,Appomattox,011,020802030401,RL_2B_118571,III, ,,,,1,0.824287953,176,324,227.9866768,24.00882465,148,0,22.75874519,6.756884189,3.460501548,22.75874519,1077.46,1077.46,42.41970795,42.41970795,
,Ref,VDEQ_BUG,2-POL010.11,2-POL010.11_2002,37.61011111,-79.25310833,Below Rt. 640 Bridge,45,Piedmont,45e,Northern Inner Piedmont,JM05,BRRO,Blue Ridge,Pedlar River-Browns Creek,N,JM,Browns Creek-Pedlar River,0208020302,James River Basin,2B,James-Middle,Amherst,009,020802030202,,,,,,,3,51.50029513,229,1234,596.4378251,194.6668868,1005,0,40.45346451,15.0532909,6.645860973,40.45346451,17069.43,1011.37,672.025166,39.81773804,
,Ref,VDEQ_BUG,2-POL019.63,,37.69527778,-79.2775,Pedlar River upstr of reservoir @ rt 636,66,Blue Ridge,66a,Northern Igneous Ridges,JM04,BRRO,Blue Ridge,Pedlar River-Lynchburg Reservoir,N,JM,Lynchburg Reservoir-Pedlar River,0208020302,James River Basin,2B,James-Middle,Amherst,009,020802030201,RL_2B_116381,V,PWS,Yes,Yes,,,,,,,,,,,,,,,,,,
,Ref,VDEQ_BUG,2-POL020.03,2-POL020.03_2017,37.696389,-79.281889,Pedlar River upstream of Reservoir Rd,66,Blue Ridge,66a,Northern Igneous Ridges,JM04,BRRO,Blue Ridge,Pedlar River-Lynchburg Reservoir,N,JM,Lynchburg Reservoir-Pedlar River,0208020302,James River Basin,2B,James-Middle,Amherst,009,020802030201,RL_2B_116229,V,"PWS, ESW-8",Yes,Yes,Yes,3,27.07079395,342,1234,697.4233111,160.0862992,892,0,40.45346451,15.41503383,6.425901433,40.45346451,9901.81,1009.58,389.8352499,39.74726556,
,Ref,VDEQ_BUG,4ABKN008.26,4ABKN008.26_2015,36.86619444,-79.49858333,Bearskin Ck upstream of Rte 800,45,Piedmont,45e,Northern Inner Piedmont,RD53,BRRO,Blue Ridge,Bearskin Creek,N,RD,Bearskin Creek,0301010501,Roanoke River Basin,4A,Roanoke,Pittsylvania,143,030101050102,RL_4A_082659,III,PWS,Yes,,,1,1.386531978,246,300,275.6033077,11.09124539,54,0,10.62474823,3.056529168,1.553084036,10.62474823,1133.5,1133.5,44.62600835,44.62600835,
,Ref,VDEQ_BUG,4ACAS003.45,4ACAS003.45_2012,36.5595,-79.67980556,Cascade Cr @ rt 622 (Cascade Road),45,Piedmont,45g,Triassic Basins,RD31,BRRO,Blue Ridge,Cascade Creek,N,RD,Cascade Creek,0301010309,Roanoke River Basin,4A,Roanoke,Pittsylvania,143,030101030902,RL_4A_056364,IV,PWS,Yes,,,3,21.97678042,168,316,239.0553012,29.55960235,148,0,19.68086624,4.977916503,2.702491815,19.68086624,7876.49,310.0981989,,44.20081127,1122.7
,Ref,VDEQ_BUG,4ACAS003.45,4ACAS003.45_2016,36.5595,-79.67980556,Cascade Cr @ rt 622 (Cascade Road),45,Piedmont,45g,Triassic Basins,RD31,BRRO,Blue Ridge,Cascade Creek,N,RD,Cascade Creek,0301010309,Roanoke River Basin,4A,Roanoke,Pittsylvania,143,030101030902,RL_4A_056364,IV,PWS,Yes,,,3,21.97678042,168,316,239.0553012,29.55960235,148,0,19.68086624,4.977916503,2.702491815,19.68086624,7876.49,310.0981989,,44.20081127,1122.7
,Ref,VDEQ_BUG,4AFRV017.85,4AFRV017.85_2013,37.19569444,-78.9505,Falling River just upstream of Rte 615,45,Piedmont,45g,Triassic Basins,RU69,BRRO,Blue Ridge,Falling River-Suck Creek,N,RU,Suck Creek-Falling River,0301010202,Roanoke River Basin,4A,Roanoke,Campbell,031,030101020205,RL_4A_104511,III,,,,,4,111.4779091,128,437,223.7243315,31.97865203,309,0,39.70933914,5.085969322,3.060094061,39.70933914,31399.17,1079.14,1236.188463,42.48584971,
,Ref,VDEQ_BUG,4AFSF013.80,4AFSF013.80_2018,37.297658,-79.013206,S F Falling R S of Rt 656/737 intersect,45,Piedmont,45e,Northern Inner Piedmont,RU67,BRRO,Blue Ridge,South Fork Falling River-Button Creek,N,RU,Button Creek-South Fork Falling River,0301010202,Roanoke River Basin,4A,Roanoke,Campbell,031,030101020203,RL_4A_118149,III,,,,,3,9.594550691,193,421,252.722873,32.08577219,228,0,31.89638138,5.292934033,3.856632218,31.89638138,3245.19,1084.37,127.7634548,42.69175534,
,Ref,VDEQ_BUG,4AGEO006.26,4AGEO006.26_2011,36.93277778,-79.30958333,Georges Ck app. 1k dwstr of Rt 40,45,Piedmont,45e,Northern Inner Piedmont,RD57,BRRO,Blue Ridge,Whitehorn Creek-Georges Creek,N,RD,Georges Creek-Whitehorn Creek,0301010502,Roanoke River Basin,4A,Roanoke,Pittsylvania,143,030101050202,,,,,,,3,9.894099786,194,339,256.587096,25.2520741,145,0,17.53904533,3.674698523,1.945674123,17.53904533,3333.6,1114.1,131.24416540000001,43.86222841,
,Ref,VDEQ_BUG,4ALOA000.62,,37.075275,-79.466786,Long Branch @ Rte 733,45,Piedmont,45e,Northern Inner Piedmont,RU38,BRRO,Blue Ridge,Roanoke River/Leesville Lake-Old Womans Creek,N,RU,Old Womans Creek-Leesville Lake,0301010113,Roanoke River Basin,4A,Roanoke,Bedford,019,030101011302,RL_4A_087681,III,,,,,,,,,,,,,,,,,,,,,
,Ref,VDEQ_BUG,4ARAB006.49,,37.018322,-79.275692,Reed Creek @ Rte 642,45,Piedmont,45e,Northern Inner Piedmont,RU48,BRRO,Blue Ridge,Roanoke River-Reed Creek,N,RU,Reed Creek-Roanoke River,0301010113,Roanoke River Basin,4A,Roanoke,Pittsylvania,143,030101011305,RL_4A_090231,III,PWS,Yes,,,,,,,,,,,,,,,,,,,
,Int,VDEQ_BUG,2BACH000.46,2BACH000.46_2018,37.392758,-79.055133,Archer Creek upstream of Mt. Athos Rd,45,Piedmont,45e,Northern Inner Piedmont,JM13,BRRO,Blue Ridge,James River-Archer Creek,N,JM,Archer Creek-James River,0208020304,James River Basin,2B,James-Middle,Campbell,031,020802030401,RL_2B_118383,III, ,,,,2,8.450047373,157,288,231.5582191,23.48378751,131,0,32.89302444,5.747208072,3.665606095,32.89302444,2144.95,1056.75,84.446896,41.60435318,
,Int,VDEQ_BUG,2BBUF000.25,2BBUF000.25_2015,37.61969444,-78.898,Buffalo R just upstream of Tye R confl,45,Piedmont,45e,Northern Inner Piedmont,JM31,BRRO,Blue Ridge,Buffalo River-Rocky Creek,N,JM,Rocky Creek-Buffalo River,0208020306,James River Basin,2B,James-Middle,Nelson,125,020802030604,RL_2B_120708,III, ,,,,4,153.397429,133,1235,306.7045288,181.142797,1102,0,41.93174744,9.588922287,6.892255305,41.93174744,45456.7,1123.32,1789.634825,44.22522073,
,Int,VDEQ_BUG,2BHAZ008.51,2BHAZ008.51_2015,37.49619444,-79.1515,Harris Cr above rt 675 (winesap Rd),45,Piedmont,45e,Northern Inner Piedmont,JM08,BRRO,Blue Ridge,Harris Creek,N,JM,Harris Creek,0208020303,James River Basin,2B,James-Middle,Amherst,009,020802030302,RL_2B_113643,III,PWS,Yes,,,3,34.38757874,195,892,306.9395866,99.98920412,697,0,39.41800308,9.439755184,6.507148676,39.41800308,10053.94,1097.42,395.8246232,43.20553514,
,Int,VDEQ_BUG,2BHOY002.92,,37.59262778,-79.23449722,Horseley Ck @ Rte 642,45,Piedmont,45e,Northern Inner Piedmont,JM06,BRRO,Blue Ridge,Pedlar River-Horsley Creek,N,JM,Horsley Creek-Pedlar River,0208020302,James River Basin,2B,James-Middle,Amherst,009,020802030203,RL_2B_113421,III, ,,,,,,,,,,,,,,,,,,,,
,Int,VDEQ_BUG,2-BKW000.40,,37.41944444,-79.14611111,Blackwater Cr @ Rivermont Ave,45,Piedmont,45e,Northern Inner Piedmont,JM10,BRRO,Blue Ridge,Blackwater Creek,N,JM,Blackwater Creek,0208020303,James River Basin,2B,James-Middle,Lynchburg,680,020802030304,RL_2B_112609,III,,Yes,,,,,,,,,,,,,,,,,,,
,Int,VDEQ_BUG,2-HAZ006.91,,37.486653,-79.168817,Downstream of Hwy 130,45,Piedmont,45e,Northern Inner Piedmont,JM08,BRRO,Blue Ridge,Harris Creek,N,JM,Harris Creek,0208020303,James River Basin,2B,James-Middle,Amherst,009,020802030302,RL_2B_113684,III,PWS,Yes,,,,,,,,,,,,,,,,,,,
,Int,VDEQ_BUG,2-IVA012.13,,37.39027778,-79.2825,Ivy Cr @ rt 662,45,Piedmont,45e,Northern Inner Piedmont,JM09,BRRO,Blue Ridge,Ivy Creek-Cheese Creek,N,JM,Cheese Creek-Ivy Creek,0208020303,James River Basin,2B,James-Middle,Bedford,019,020802030303,RL_2B_111889,III,,Yes,,,,,,,,,,,,,,,,,,,
,Int,VDEQ_BUG,2-JTH001.52,,37.46833333,-79.21,Rt. 645 (Trents Ferry Road),45,Piedmont,45e,Northern Inner Piedmont,JM07,BRRO,Blue Ridge,James River-Judith Creek,N,JM,Judith Creek-James River,0208020303,James River Basin,2B,James-Middle,Bedford,019,020802030301,,,,,,,,,,,,,,,,,,,,,,,
,Int,VDEQ_BUG,2-JTH006.53,,37.46836,-79.262711,X of 761 & 647 just off 501 past Bnsboro,45,Piedmont,45e,Northern Inner Piedmont,JM07,BRRO,Blue Ridge,James River-Judith Creek,N,JM,Judith Creek-James River,0208020303,James River Basin,2B,James-Middle,Bedford,019,020802030301,RL_2B_113069,III,PWS,Yes,,,,,,,,,,,,,,,,,,,
,Int,VDEQ_BUG,2-RLD000.48,,37.60916667,-78.21166667,Reynolds Creek @ Rt. 615 Bridge,45,Piedmont,45f,Northern Outer Piedmont,JM70,PRO,Piedmont,Willis River-Trice Lake,N,JM,Trice Lake-Willis River,0208020503,James River Basin,2B,James-Middle,Cumberland,049,020802050303,,,,,,,,,,,,,,,,,,,,,,,
,Int,VDEQ_BUG,2-STW004.84,2-STW004.84_2011,37.42569444,-78.97408333,Stonewall Cr just upstream of Rt 611,45,Piedmont,45e,Northern Inner Piedmont,JM14,BRRO,Blue Ridge,James River-Stonewall Creek,N,JM,Stonewall Creek-James River,0208020304,James River Basin,2B,James-Middle,Appomattox,011,020802030402,,,,,,,3,7.280745774,173,275,229.0527224,17.11932288,102,0,21.98127365,5.271758999,2.957073679,21.98127365,2166.49,1077.46,85.29492795,42.41970795,
,Int,VDEQ_BUG,2-TNR000.25,,37.59888889,-78.99583333,Turner Cr @ rt 739 Boxwood Farm Rd,45,Piedmont,45e,Northern Inner Piedmont,JM29,BRRO,Blue Ridge,Buffalo River-Stonewall Creek,N,JM,Stonewall Creek-Buffalo River,0208020306,James River Basin,2B,James-Middle,Amherst,009,020802030602,RL_2B_120011,III, ,,,,,,,,,,,,,,,,,,,,
,Int,VDEQ_BUG,4AALN016.38,,36.70666667,-78.36916667,"ALLEN CREEK, RT. 660 BRIDGE",45,Piedmont,45c,Carolina Slate Belt,RL10,BRRO,Blue Ridge,Allen Creek-Layton Creek,N,RL,Layton Creek-Allen Creek,0301010601,Roanoke River Basin,4A,Roanoke,Mecklenburg,117,030101060101,RL_4A_129898,III,PWS,Yes,,,,,,,,,,,,,,,,,,,
,Int,VDEQ_BUG,4ABAC002.57,,37.154272,-79.384783,Back Creek @ Rte 628 Bishop Creek Road,45,Piedmont,45e,Northern Inner Piedmont,RU45,BRRO,Blue Ridge,Goose Creek-Back Creek,N,RU,Back Creek-Goose Creek,0301010112,Roanoke River Basin,4A,Roanoke,Bedford,019,030101011203,RL_4A_089420,III,PWS,Yes,,,,,,,,,,,,,,,,,,,
,Int,VDEQ_BUG,4ABAN057.85,,36.80458333,-79.33558333,Banister 0.2 miles DS of Cherrystne Ck,45,Piedmont,45g,Triassic Basins,RD58,BRRO,Blue Ridge,Banister River-Shockoe Creek,N,RD,Shockoe Creek-Banister River,0301010502,Roanoke River Basin,4A,Roanoke,Pittsylvania,143,030101050203,RL_4A_083260,III,,,,,,,,,,,,,,,,,,,,,
,Int,VDEQ_BUG,4ABEE000.80,,36.54361111,-78.62444444,RT. 727 BRIDGE,45,Piedmont,45c,Carolina Slate Belt,RL01,BRRO,Blue Ridge,Johnson Creek-John H Kerr Reservoir,N,RL,Beech Creek-Johnson Creek,0301010208,Roanoke River Basin,4A,Roanoke,Mecklenburg,117,030101020803,RL_4A_098173,III,PWS,Yes,,,,,,,,,,,,,,,,,,,
,Int,VDEQ_BUG,4ABIR011.55,,36.70305556,-79.21777778,Birch Cr. @ rte 729-Kentuck rd,45,Piedmont,45e,Northern Inner Piedmont,RD47,BRRO,Blue Ridge,Birch Creek,N,RD,Birch Creek,0301010403,Roanoke River Basin,4A,Roanoke,Pittsylvania,143,030101040305,RL_4A_084421,III,,,,,,,,,,,,,,,,,,,,,
,Int,VDEQ_BUG,4ABLS002.11,,36.9449,-79.165501,Blacks Creek @ HWY 40,45,Piedmont,45g,Triassic Basins,RD60,BRRO,Blue Ridge,Banister River-Allen Creek,N,RD,Allen Creek-Banister River,0301010502,Roanoke River Basin,4A,Roanoke,Pittsylvania,143,030101050205,RL_4A_090569,III,,,,,,,,,,,,,,,,,,,,,
,Int,VDEQ_BUG,4ABMN000.65,,36.57458889,-78.73965833,Big Mountain Br @ 606 Rice School Rd,45,Piedmont,45c,Carolina Slate Belt,RD75,BRRO,Blue Ridge,Aarons Creek-John H Kerr Reservoir,N,RD,Aarons Creek-John H Kerr Reservoir,0301010407,Roanoke River Basin,4A,Roanoke,Halifax,083,030101040702,RL_4A_097187,III,PWS,Yes,,,,,,,,,,,,,,,,,,,
,Int,VDEQ_BUG,4ABST009.45,4ABST009.45_2014,36.73188889,-78.617,Bluestone Creek just upstream of Rte 699,45,Piedmont,45c,Carolina Slate Belt,RU91,BRRO,Blue Ridge,Bluestone Creek-Otter Creek,N,RU,Otter Creek-Bluestone Creek,0301010207,Roanoke River Basin,4A,Roanoke,Mecklenburg,117,030101020701,RL_4A_100288,III,PWS,Yes,,,4,45.88225141,99,194,146.5857587,16.56689421,95,0,20.67290878,3.165441194,1.707223866,20.67290878,12005.12,1073.23,472.6427749,42.25317242,
,Int,VDEQ_BUG,4ABUB000.06,,37.20333333,-78.73472222,Big Cub Creek @ Rt. 701,45,Piedmont,45e,Northern Inner Piedmont,RU76,BRRO,Blue Ridge,Big Cub Creek,N,RU,Big Cub Creek,0301010203,Roanoke River Basin,4A,Roanoke,Charlotte,037,030101020301,RL_4A_108206,III,PWS,Yes,,,,,,,,,,,,,,,,,,,
,Int,VDEQ_BUG,4ABWA002.00,,37.25201667,-79.32430833,Below Rt. 24 Bridge,45,Piedmont,45e,Northern Inner Piedmont,RU56,BRRO,Blue Ridge,Buffalo Creek,N,RU,Buffalo Creek,0301010115,Roanoke River Basin,4A,Roanoke,Bedford,019,030101011502,RL_4A_091924,III,PWS,Yes,,,,,,,,,,,,,,,,,,,
,Int,VDEQ_BUG,4AFAL006.61,4AFAL006.61_2014,36.65119444,-79.37988889,Fall Creek upstream of business 29,45,Piedmont,45e,Northern Inner Piedmont,RD38,BRRO,Blue Ridge,Fall Creek,N,RD,Fall Creek,0301010401,Roanoke River Basin,4A,Roanoke,Pittsylvania,143,030101040101,RL_4A_081830,III,,,,,3,13.90730148,144,355,207.2103208,27.97872824,211,0,17.92007446,3.588391572,2.064460754,17.92007446,4460.74,1102.24,175.6197799,43.39529902,
,Int,VDEQ_BUG,4AFCA001.40,,37.21166667,-79.26444444,FLAT CR @ RT. 696 BR,45,Piedmont,45e,Northern Inner Piedmont,RU58,BRRO,Blue Ridge,Flat Creek,N,RU,Flat Creek,0301010115,Roanoke River Basin,4A,Roanoke,Campbell,031,030101011504,RL_4A_092123,III,PWS,Yes,,,,,,,,,,,,,,,,,,,
,Int,VDEQ_BUG,4AFRV007.57,,37.100806,-78.947311,East of Rte 868,45,Piedmont,45e,Northern Inner Piedmont,RU69,BRRO,Blue Ridge,Falling River-Suck Creek,N,RU,Suck Creek-Falling River,0301010202,Roanoke River Basin,4A,Roanoke,Campbell,031,030101020205,RL_4A_104086,III,PWS,Yes,,,,,,,,,,,,,,,,,,,
,Int,VDEQ_BUG,4AFRY006.08,4AFRY006.08_2003,36.94796944,-79.44736389,Rt. 40 Bridge,45,Piedmont,45e,Northern Inner Piedmont,RU37,BRRO,Blue Ridge,Pigg River-Fryingpan Creek,N,RU,Fryingpan Creek-Pigg River,0301010110,Roanoke River Basin,4A,Roanoke,Pittsylvania,143,030101011002,RL_4A_087958,III,,,,,2,4.812879416,230,300,265.1004697,14.56711278,70,0,10.71500874,3.107127786,1.548316011,10.71500874,2235.71,1108.23,88.02012627,43.63112592,
,Int,VDEQ_BUG,4AGEO006.26,4AGEO006.26_2011,36.93277778,-79.30958333,Georges Ck app. 1k dwstr of Rt 40,45,Piedmont,45e,Northern Inner Piedmont,RD57,BRRO,Blue Ridge,Whitehorn Creek-Georges Creek,N,RD,Georges Creek-Whitehorn Creek,0301010502,Roanoke River Basin,4A,Roanoke,Pittsylvania,143,030101050202,,,,,,,3,9.894099786,194,339,256.587096,25.2520741,145,0,17.53904533,3.674698523,1.945674123,17.53904533,3333.6,1114.1,131.24416540000001,43.86222841,
,Int,VDEQ_BUG,4AGEO006.73,,36.93626389,-79.31164722,georges cr @ rt 40,45,Piedmont,45e,Northern Inner Piedmont,RD57,BRRO,Blue Ridge,Whitehorn Creek-Georges Creek,N,RD,Georges Creek-Whitehorn Creek,0301010502,Roanoke River Basin,4A,Roanoke,Pittsylvania,143,030101050202,RL_4A_089870,III,,,,,,,,,,,,,,,,,,,,,
,Int,VDEQ_BUG,4AGEO007.12,,36.937256,-79.316678,upstream of Hwy 40,45,Piedmont,45e,Northern Inner Piedmont,RD57,BRRO,Blue Ridge,Whitehorn Creek-Georges Creek,N,RD,Georges Creek-Whitehorn Creek,0301010502,Roanoke River Basin,4A,Roanoke,Pittsylvania,143,030101050202,RL_4A_089882,III,,,,,,,,,,,,,,,,,,,,,
,Int,VDEQ_BUG,4AGRT003.82,,36.59305555,-78.09083333,"GREAT CREEK, RT. 619 BRIDGE",45,Piedmont,45f,Northern Outer Piedmont,RL18,BRRO,Blue Ridge,Roanoke River/Lake Gaston-Great Creek,N,RL,Great Creek-Lake Gaston,0301010603,Roanoke River Basin,4A,Roanoke,Mecklenburg,117,030101060302,RL_4A_133022,III,PWS,Yes,,,,,,,,,,,,,,,,,,,
,Int,VDEQ_BUG,4ALAW002.38,4ALAW002.38_2014,36.66629722,-79.35279167,LAWLESS CR 40M BELOW RT 719,45,Piedmont,45e,Northern Inner Piedmont,RD38,BRRO,Blue Ridge,Fall Creek,N,RD,Fall Creek,0301010401,Roanoke River Basin,4A,Roanoke,Pittsylvania,143,030101040101,RL_4A_081812,III,,,,,2,4.026041648,164,251,211.226471,15.24862702,87,0,9.702907562,2.954849643,1.40596946,9.702907562,1114.77,43.88860638,,43.67994485,1109.47
,Int,VDEQ_BUG,4ALAW002.43,,36.66638889,-79.3525,Lawless Creek @ Lawless Creek Rd,45,Piedmont,45e,Northern Inner Piedmont,RD38,BRRO,Blue Ridge,Fall Creek,N,RD,Fall Creek,0301010401,Roanoke River Basin,4A,Roanoke,Pittsylvania,143,030101040101,RL_4A_081812,III,,,,,,,,,,,,,,,,,,,,,
,Int,VDEQ_BUG,4ALPP004.46,,36.60024167,-77.99693889,Little Poplar at Dr. Purdy Road,45,Piedmont,45f,Northern Outer Piedmont,RL20,BRRO,Blue Ridge,Poplar Creek,N,RL,Poplar Creek,0301010603,Roanoke River Basin,4A,Roanoke,Brunswick,025,030101060304,RL_4A_142831,III,PWS,Yes,,,,,,,,,,,,,,,,,,,
,Int,VDEQ_BUG,4ALPP004.52,4ALPP004.52_2013,36.6142,-77.9771,Little Poplar East of 659,45,Piedmont,45f,Northern Outer Piedmont,RL20,BRRO,Blue Ridge,Poplar Creek,N,RL,Poplar Creek,0301010603,Roanoke River Basin,4A,Roanoke,Brunswick,025,030101060304,RL_4A_142817,III,PWS,Yes,,,2,2.112665625,80,127,106.1721884,9.249789634,47,0,12.52687168,3.086230924,1.817485604,12.52687168,1112.46,1111.16,43.79766145,43.74648032,
,Int,VDEQ_BUG,4ALRO010.18,,37.10138889,-78.5625,RTE 604 (Abilene Rd),45,Piedmont,45f,Northern Outer Piedmont,RU81,BRRO,Blue Ridge,Roanoke Creek-Spring Creek,N,RU,Spring Creek-Roanoke Creek,0301010205,Roanoke River Basin,4A,Roanoke,Charlotte,037,030101020501,RL_4A_137688,III,PWS,Yes,,,,,,,,,,,,,,,,,,,
,Int,VDEQ_BUG,4ALUB000.12,,37.20416667,-78.73333333,RTE 691 (Tower Rd/Thortons Mill Rd),45,Piedmont,45e,Northern Inner Piedmont,RU77,BRRO,Blue Ridge,Little Cub Creek,N,RU,Little Cub Creek,0301010203,Roanoke River Basin,4A,Roanoke,Charlotte,037,030101020302,RL_4A_108223,III,PWS,Yes,,,,,,,,,,,,,,,,,,,
,Int,VDEQ_BUG,4ALYH000.50,,37.11230556,-79.2889,Lynch Cr @ Foot Bridge - City Park,45,Piedmont,45e,Northern Inner Piedmont,RU48,BRRO,Blue Ridge,Roanoke River-Reed Creek,N,RU,Reed Creek-Roanoke River,0301010113,Roanoke River Basin,4A,Roanoke,Campbell,031,030101011305,RL_4A_091537,III,PWS,Yes,,,,,,,,,,,,,,,,,,,
,Int,VDEQ_BUG,4AMEY006.72,4AMEY006.72_2013,37.1835,-79.03488889,Mollys Creek E of Rte 650,45,Piedmont,45e,Northern Inner Piedmont,RU68,BRRO,Blue Ridge,Mollys Creek,N,RU,Mollys Creek,0301010202,Roanoke River Basin,4A,Roanoke,Campbell,031,030101020204,RL_4A_104314,III,,,,,3,19.12968763,165,382,233.1335884,25.50507368,217,0,23.09424019,4.159060892,2.309902021,23.09424019,5386.54,1084.96,212.0686185,42.7149837,
,Int,VDEQ_BUG,4AMIL000.14,4AMIL000.14_2017,36.8755,-79.276556,Mill Creek upstream of Dry Branch,45,Piedmont,45g,Triassic Basins,RD56,BRRO,Blue Ridge,Whitehorn Creek-Mill Creek,N,RD,Mill Creek-Whitehorn Creek,0301010502,Roanoke River Basin,4A,Roanoke,Pittsylvania,143,030101050201,RL_4A_086180,III,PWS,Yes,,,3,10.98067627,160,283,218.7172725,22.92778489,123,0,14.74121189,3.154791124,1.773103259,14.74121189,4507.15,1111.75,177.4469462,43.76970868,
,Int,VDEQ_BUG,4AMIL002.17,,36.86889722,-79.30553333,Mill Creek @ rt 690 (Coles Rd.),45,Piedmont,45e,Northern Inner Piedmont,RD56,BRRO,Blue Ridge,Whitehorn Creek-Mill Creek,N,RD,Mill Creek-Whitehorn Creek,0301010502,Roanoke River Basin,4A,Roanoke,Pittsylvania,143,030101050201,RL_4A_086192,III,PWS,Yes,,,,,,,,,,,,,,,,,,,
,Int,VDEQ_BUG,4AMRY003.02,4AMRY003.02_2015,36.69227778,-79.00138889,Miry Ck downstream of Rte 681,45,Piedmont,45e,Northern Inner Piedmont,RD48,BRRO,Blue Ridge,Miry Creek,N,RD,Miry Creek,0301010404,Roanoke River Basin,4A,Roanoke,Halifax,083,030101040401,RL_4A_093769,III,,,,,3,13.76465087,101,203,145.9937919,17.94719232,102,0,20.4024086,3.976142288,2.237085138,20.4024086,4407.77,1102.59,173.5343457,43.40907856,
,Int,VDEQ_BUG,4AMRY003.58,,36.69156111,-79.01143056,Route 681 (Union Church Road),45,Piedmont,45e,Northern Inner Piedmont,RD48,BRRO,Blue Ridge,Miry Creek,N,RD,Miry Creek,0301010404,Roanoke River Basin,4A,Roanoke,Halifax,083,030101040401,RL_4A_093762,III,,,,,,,,,,,,,,,,,,,,,
,Int,VDEQ_BUG,4APEC002.42,,36.78833333,-79.00666667,Polecat Cr. @ Rt. 832,45,Piedmont,45e,Northern Inner Piedmont,RD65,BRRO,Blue Ridge,Banister River-Polecat Creek,N,RD,Polecat Creek-Banister River,0301010504,Roanoke River Basin,4A,Roanoke,Halifax,083,030101050401,RL_4A_095192,III,PWS,Yes,,,,,,,,,,,,,,,,,,,
,Int,VDEQ_BUG,4APEN000.05,4APEN000.05_2018,36.640539,-78.794703,Pensions Br East of Rt 738 Kingwoods Rd,45,Piedmont,45c,Carolina Slate Belt,RD74,BRRO,Blue Ridge,Hyco River/John H Kerr Reservoir-Larkin Branch,N,RD,Larkin Branch-Hyco River,0301010406,Roanoke River Basin,4A,Roanoke,Halifax,083,030101040608,RL_4A_097536,III,PWS,Yes,,,1,2.186005097,93,168,126.2970838,15.35714495,75,0,13.09744072,3.573652619,1.9719319,13.09744072,1089.77,1089.77,42.90435388,42.90435388,
,Int,VDEQ_BUG,4APKP002.31,,36.55694444,-79.40333333,"PUMPKIN CR.,old RT 86",45,Piedmont,45e,Northern Inner Piedmont,RD39,BRRO,Blue Ridge,Dan River-Pumpkin Creek,N,RD,Pumpkin Creek-Dan River,0301010401,Roanoke River Basin,4A,Roanoke,Danville,590,030101040102,RL_4A_081449,III,,,,,,,,,,,,,,,,,,,,,
,Int,VDEQ_BUG,4APOP000.10,4APOP000.10_2012,36.69019444,-78.52188889,Popes Ck E of 845 S of 698,45,Piedmont,45c,Carolina Slate Belt,RU93,BRRO,Blue Ridge,Bluestone Creek-Goodell Creek,N,RU,Goodell Creek-Bluestone Creek,0301010207,Roanoke River Basin,4A,Roanoke,Mecklenburg,117,030101020703,,,,,,,2,2.808531779,106,155,127.1423456,8.463985631,49,0,9.087883949,2.572917317,1.460461304,9.087883949,6457.81,1063.33,254.2446255,41.86340843,
,Int,VDEQ_BUG,4ARAB000.52,,37.09944445,-79.28138889,Reed Cr @ Grit Road (Rt 668),45,Piedmont,45e,Northern Inner Piedmont,RU48,BRRO,Blue Ridge,Roanoke River-Reed Creek,N,RU,Reed Creek-Roanoke River,0301010113,Roanoke River Basin,4A,Roanoke,Pittsylvania,143,030101011305,RL_4A_091542,III,PWS,Yes,,,,,,,,,,,,,,,,,,,
,Int,VDEQ_BUG,4ARAB003.64,4ARAB003.64_2012,37.057,-79.26838889,Reed Ck just dwnstrm of 638,45,Piedmont,45e,Northern Inner Piedmont,RU48,BRRO,Blue Ridge,Roanoke River-Reed Creek,N,RU,Reed Creek-Roanoke River,0301010113,Roanoke River Basin,4A,Roanoke,Pittsylvania,143,030101011305,RL_4A_090310,III,PWS,Yes,,,2,7.435678486,183,342,242.9939589,26.25827018,159,0,16.0875721,4.502656551,2.223219352,16.0875721,2186.92,1080.03,86.09925909,42.5208891,
,Int,VDEQ_BUG,4AROC006.93,,36.94969444,-78.66288889,Roanoke Cr app. 0.2 miles N of Saxe,45,Piedmont,45f,Northern Outer Piedmont,RU86,BRRO,Blue Ridge,Roanoke Creek-Lipscomb Branch,N,RU,Lipscomb Branch-Roanoke Creek,0301010205,Roanoke River Basin,4A,Roanoke,Charlotte,037,030101020506,,,,,,,,,,,,,,,,,,,,,,,
,Int,VDEQ_BUG,4ASCE007.71,4ASCE007.71_2011,37.05819445,-79.32358333,Sycamore Cr betwn Rt 638 and Rt 642,45,Piedmont,45e,Northern Inner Piedmont,RU47,BRRO,Blue Ridge,Sycamore Creek-Little Sycamore Creek,N,RU,Little Sycamore Creek-Sycamore Creek,0301010113,Roanoke River Basin,4A,Roanoke,Pittsylvania,143,030101011304,,,,,,,2,12.52428294,198,348,254.1867807,21.47465306,150,0,18.04278755,4.283185786,2.348495744,18.04278755,5457.36,1089.56,214.8568089,42.89608616,
,Int,VDEQ_BUG,4ASDE002.18,4ASDE002.18_2012,36.76519445,-79.29608333,Sweden Fork just upstream of 707,45,Piedmont,45e,Northern Inner Piedmont,RD63,BRRO,Blue Ridge,Upper Sandy Creek,N,RD,Upper Sandy Creek,0301010503,Roanoke River Basin,4A,Roanoke,Pittsylvania,143,030101050301,RL_4A_085644,III,,,,,2,9.291647035,170,294,216.8403069,20.60369876,124,0,14.0078392,3.478294128,1.84027658,14.0078392,2245.08,1115.48,88.38902411,43.91655915,
,Int,VDEQ_BUG,4ASDE002.65,4ASDE002.65_2010,36.76334444,-79.30136111,Sweden Fork W of 707 N of 662,45,Piedmont,45e,Northern Inner Piedmont,RD63,BRRO,Blue Ridge,Upper Sandy Creek,N,RD,Upper Sandy Creek,0301010503,Roanoke River Basin,4A,Roanoke,Pittsylvania,143,030101050301,,,,,,,2,8.423605273,172,294,218.5603818,20.44155695,122,0,14.0078392,3.483070116,1.863564529,14.0078392,2245.08,1120.8,88.38902411,44.12600808,
,Int,VDEQ_BUG,4ASNE005.10,,36.924797,-79.230078,downstream of Rte 927 (site 4ASNE005.30,45,Piedmont,45g,Triassic Basins,RD59,BRRO,Blue Ridge,Stinking River,N,RD,Stinking River,0301010502,Roanoke River Basin,4A,Roanoke,Pittsylvania,143,030101050204,RL_4A_090156,III,,,,,,,,,,,,,,,,,,,,,
,Int,VDEQ_BUG,4ASRV022.99,,36.73944444,-79.61472222,Sandy River @ Wyatt Farm Road RT. 612,45,Piedmont,45e,Northern Inner Piedmont,RD35,BRRO,Blue Ridge,South Prong Sandy River-Tanyard Creek,N,RD,Tanyard Creek-South Prong Sandy River,0301010310,Roanoke River Basin,4A,Roanoke,Pittsylvania,143,030101031002,RL_4A_057922,III,,,,,,,,,,,,,,,,,,,,,
,Int,VDEQ_BUG,4ASRW002.32,,36.76333333,-79.53527778,Strawberry Cr @ Strawberry Rd (Rt 750),45,Piedmont,45e,Northern Inner Piedmont,RD52,BRRO,Blue Ridge,Banister River-Strawberry Creek,N,RD,Strawberry Creek-Banister River,0301010501,Roanoke River Basin,4A,Roanoke,Pittsylvania,143,030101050101,RL_4A_082033,III,PWS,Yes,,,,,,,,,,,,,,,,,,,
,Int,VDEQ_BUG,4ASRW004.87,4ASRW004.87_2017,36.749167,-79.566,Strawberry Ck S of Rte 612,45,Piedmont,45e,Northern Inner Piedmont,RD52,BRRO,Blue Ridge,Banister River-Strawberry Creek,N,RD,Strawberry Creek-Banister River,0301010501,Roanoke River Basin,4A,Roanoke,Pittsylvania,143,030101050101,RL_4A_082058,III,PWS,Yes,,,1,0.756847311,232,277,257.5058043,8.521155237,45,0,9.752800941,3.070241413,1.651837403,9.752800941,1134.97,1134.97,44.6838824,44.6838824,
,Int,VDEQ_BUG,4ASSP000.64,4ASSP000.64_2012,36.67238889,-79.60227778,S Prong Sandy R east of 847,45,Piedmont,45e,Northern Inner Piedmont,RD34,BRRO,Blue Ridge,Upper Sandy River,N,RD,Upper Sandy River,0301010310,Roanoke River Basin,4A,Roanoke,Pittsylvania,143,030101031001,,,,,,,4,27.01479,188,344,268.9089007,24.5609642,156,0,18.18562889,4.020392928,2.129447973,18.18562889,9184.8,1124.68,361.6064945,44.27876407,
,Int,VDEQ_BUG,4ASSP002.44,,36.66305556,-79.61805556,"RT 841, Whispering Pines Road",45,Piedmont,45e,Northern Inner Piedmont,RD34,BRRO,Blue Ridge,Upper Sandy River,N,RD,Upper Sandy River,0301010310,Roanoke River Basin,4A,Roanoke,Pittsylvania,143,030101031001,RL_4A_056848,III,,,,,,,,,,,,,,,,,,,,,
,Int,VDEQ_BUG,4ASUT000.89,,36.6575,-79.58722222,Sugartree @ Inman Rd,45,Piedmont,45e,Northern Inner Piedmont,RD36,BRRO,Blue Ridge,Lower Sandy River,N,RD,Lower Sandy River,0301010310,Roanoke River Basin,4A,Roanoke,Pittsylvania,143,030101031003,,,,,,,,,,,,,,,,,,,,,,,
,Int,VDEQ_BUG,4ATIP002.55,,37.01444444,-78.85138889,"TURNIP CREEK, RT. 619 BRIDGE",45,Piedmont,45e,Northern Inner Piedmont,RU74,BRRO,Blue Ridge,Turnip Creek,N,RU,Turnip Creek,0301010204,Roanoke River Basin,4A,Roanoke,Charlotte,037,030101020403,RL_4A_103505,III,PWS,Yes,,,,,,,,,,,,,,,,,,,
,Int,VDEQ_BUG,4ATRB000.97,4ATRB000.97_2013,37.192,-79.2515,Troublesome Ck East of Rte 709,45,Piedmont,45e,Northern Inner Piedmont,RU59,BRRO,Blue Ridge,Big Otter River-Troublesome Creek,N,RU,Troublesome Creek-Big Otter River,0301010115,Roanoke River Basin,4A,Roanoke,Campbell,031,030101011505,RL_4A_092146,III,PWS,Yes,,,3,9.751690599,173,310,245.7172107,23.60039521,137,0,17.55486679,4.548180496,2.458091327,17.55486679,2134.03,1063.93,84.0169745,41.88703049,
,Int,VDEQ_BUG,4ATRD000.04,,36.67388889,-79.64388889,"Tanyard Creek, Rt. 855 in Soap Stone",45,Piedmont,45e,Northern Inner Piedmont,RD34,BRRO,Blue Ridge,Upper Sandy River,N,RD,Upper Sandy River,0301010310,Roanoke River Basin,4A,Roanoke,Pittsylvania,143,030101031001,RL_4A_056750,III,,,,,,,,,,,,,,,,,,,,,
,Int,VDEQ_BUG,4ATRO001.16,,36.56527778,-79.58388889,Trotters Cr @ Berry Hill Rd,45,Piedmont,45g,Triassic Basins,RD32,BRRO,Blue Ridge,Dan River-Trotters Creek,N,RD,Trotters Creek-Dan River,0301010309,Roanoke River Basin,4A,Roanoke,Pittsylvania,143,030101030903,RL_4A_080406,III,PWS,Yes,,,,,,,,,,,,,,,,,,,
,Int,VDEQ_BUG,4ATRR001.92,,36.80083333,-78.9275,TERRIBLE Cr @ Dudley Rd (Rt 615),45,Piedmont,45e,Northern Inner Piedmont,RD66,BRRO,Blue Ridge,Terrible Creek,N,RD,Terrible Creek,0301010504,Roanoke River Basin,4A,Roanoke,Halifax,083,030101050402,RL_4A_095855,III,PWS,Yes,,,,,,,,,,,,,,,,,,,
,Int,VDEQ_BUG,4ATYS002.51,,37.0961,-78.74011111,Route 667 (Hillcroft Road),45,Piedmont,45e,Northern Inner Piedmont,RU78,BRRO,Blue Ridge,Cub Creek-Rough Creek,N,RU,Rough Creek-Cub Creek,0301010203,Roanoke River Basin,4A,Roanoke,Charlotte,037,030101020303,RL_4A_107796,III,PWS,Yes,,,,,,,,,,,,,,,,,,,
,Int,VDEQ_BUG,4ATYS002.96,4ATYS002.96_2015,37.10088889,-78.737,Terrys Ck upstream of Rte 667,45,Piedmont,45e,Northern Inner Piedmont,RU78,BRRO,Blue Ridge,Cub Creek-Rough Creek,N,RU,Rough Creek-Cub Creek,0301010203,Roanoke River Basin,4A,Roanoke,Charlotte,037,030101020303,RL_4A_107802,III,PWS,Yes,,,2,5.826006277,126,215,173.553755,15.86066456,89,0,11.58052826,3.299931418,1.712239561,11.58052826,1091.45,1091.46,42.97049565,42.97088935,
,Int,VDEQ_BUG,4AWPP002.53,,37.06055556,-79.00666667,"WHIPPING CREEK, RT 633",45,Piedmont,45e,Northern Inner Piedmont,RU64,BRRO,Blue Ridge,Roanoke River-Whipping Creek,N,RU,Whipping Creek-Roanoke River,0301010201,Roanoke River Basin,4A,Roanoke,Campbell,031,030101020105,RL_4A_102252,III,PWS,Yes,,,,,,,,,,,,,,,,,,,
,Int,VDEQ_BUG,4AWRN005.50,,36.89111111,-79.3,RT. 685 BRIDGE,45,Piedmont,45e,Northern Inner Piedmont,RD56,BRRO,Blue Ridge,Whitehorn Creek-Mill Creek,N,RD,Mill Creek-Whitehorn Creek,0301010502,Roanoke River Basin,4A,Roanoke,Pittsylvania,143,030101050201,RL_4A_086184,III,PWS,Yes,,,,,,,,,,,,,,,,,,,
,Int,VDEQ_BUG,4AXCN000.31,4AXCN000.31_2015,37.12666667,-79.27083333,UT to Staunton R @ Bus29 & rt 714,45,Piedmont,45e,Northern Inner Piedmont,RU48,BRRO,Blue Ridge,Roanoke River-Reed Creek,N,RU,Reed Creek-Roanoke River,0301010113,Roanoke River Basin,4A,Roanoke,Campbell,031,030101011305,RL_4A_091541,III,PWS,Yes,,,1,3.13020742,162,303,216.8033939,24.50201972,141,0,15.71596622,4.687789121,2.410923526,15.71596622,6468.1,254.6497438,,42.50907807,1079.73
,Int,VDEQ_BUG,4AXVQ000.77,4AXVQ000.77_2013,36.62677778,-79.29369445,UT Sandy 0.25 mile downstream of Rte 732,45,Piedmont,45e,Northern Inner Piedmont,RD43,BRRO,Blue Ridge,Sandy Creek,N,RD,Sandy Creek,0301010403,Roanoke River Basin,4A,Roanoke,Pittsylvania,143,030101040301,RL_4A_083871,III,,,,,1,1.039949834,151,213,183.0800846,15.32631536,62,0,7.556035519,3.070071505,1.301953533,7.556035519,1103.93,1104.06,43.46183449,43.46695261,
,Int,VDEQ_BUG,4AXVV000.54,4AXVV000.54_2014,36.837,-78.84438889,UT Difficult E of Rte 609,45,Piedmont,45e,Northern Inner Piedmont,RU88,BRRO,Blue Ridge,Difficult Creek-Piney Creek,N,RU,Piney Creek-Difficult Creek,0301010206,Roanoke River Basin,4A,Roanoke,Halifax,083,030101020602,RL_4A_096665,III,PWS,Yes,,,1,0.170799247,142,171,155.9483395,4.59376607,29,0,8.752559662,3.022121909,1.730846956,8.752559662,1092.17,1092.17,42.99884212,42.99884212,
,Str,VDEQ_BUG,6ABEJ001.14,6ABEJ001.14_2017,37.201772,-81.636206,"Beech Fork along Rt. 624, d/s of Amonate",69,Central Appalachians,69d,Dissected Appalachian Plateau,BS02,SWRO,Southwest,Upper Dry Fork,N,BS,Upper Dry Fork,0507020101,Tennessee and Big Sandy River Basin,6A,Tennessee-Big Sandy,Tazewell,185,050702010103,RL_6A_031081,IV,,,,,2,8.992848995,520,898,720.0052118,85.80733348,378,0.355126977,44.71906281,17.76174369,7.579677202,44.36393583,1096.31,1040.37,43.16183433,40.95947094,
,Str,VDEQ_BUG,6ABLC002.30,6ABLC002.30_2015,37.2975,-82.19305556,"Off Rt. 609, betweem Big Branch and Belc",69,Central Appalachians,69d,Dissected Appalachian Plateau,BS14,SWRO,Southwest,Levisa Fork-Home Creek,N,BS,Home Creek-Levisa Fork,0507020202,Tennessee and Big Sandy River Basin,6A,Tennessee-Big Sandy,Buchanan,027,050702020201,RL_6A_025127,IV,,,,,4,7.246944465,345,726,550.1311696,71.46301773,381,0,56.9215126,23.2541571,8.460805901,56.9215126,2300.06,90.55359221,,45.2767961,1150.03
,Str,VDEQ_BUG,6ABLD000.90,,37.06694444,-82.51138889,SE of Hibbits Gap nr Wise/Dick. Co. line,69,Central Appalachians,69d,Dissected Appalachian Plateau,BS32,SWRO,Southwest,Birchfield Creek,N,BS,Birchfield Creek,0507020205,Tennessee and Big Sandy River Basin,6A,Tennessee-Big Sandy,Wise,195,050702020505,RL_6A_012636,IV,,,,,,,,,,,,,,,,,,,,,
,Str,VDEQ_BUG,6AFRY006.70,6AFRY006.70_2009,37.09333333,-82.23277778,S of Tiny,69,Central Appalachians,69d,Dissected Appalachian Plateau,BS19,SWRO,Southwest,Fryingpan Creek,N,BS,Fryingpan Creek,0507020204,Tennessee and Big Sandy River Basin,6A,Tennessee-Big Sandy,Dickenson,051,050702020404,RL_6A_014606,V,,,Yes,,3,11.3703959,431,918,661.2504283,96.58453368,487,0,53.55207062,22.57544401,8.342181768,53.55207062,3495.74,1171.11,137.6276334,46.10671781,
,Str,VDEQ_BUG,6AIND000.52,,37.10444445,-82.16222222,"Off Rt 80, Rt 602 bridge #6905",69,Central Appalachians,69d,Dissected Appalachian Plateau,BS17,SWRO,Southwest,Indian Creek-Cane Creek,N,BS,Cane Creek-Indian Creek,0507020204,Tennessee and Big Sandy River Basin,6A,Tennessee-Big Sandy,Buchanan,027,050702020402,RL_6A_014602,IV,,,,,,,,,,,,,,,,,,,,,
,Str,VDEQ_BUG,6ALPP001.60,6ALPP001.60_2015,37.1836,-82.214,Off Rt. 658,69,Central Appalachians,69d,Dissected Appalachian Plateau,BS21,SWRO,Southwest,Russell Fork-Pawpaw Creek,N,BS,Pawpaw Creek-Russell Fork,0507020204,Tennessee and Big Sandy River Basin,6A,Tennessee-Big Sandy,Buchanan,027,050702020406,RL_6A_014956,IV,,,,,1,0.751702976,462,683,569.2710944,44.33621997,221,0.502218962,39.22178268,20.23978184,6.79792389,38.71956372,2314.18,1157.39,91.10949802,45.56656004,
,Str,VDEQ_BUG,6ASLI000.06,,37.3652,-82.21681,First gravel road to right on Rt. 733,69,Central Appalachians,69d,Dissected Appalachian Plateau,BS15,SWRO,Southwest,Levisa Fork-Feds Creek,N,BS,Feds Creek-Levisa Fork,0507020202,Tennessee and Big Sandy River Basin,6A,Tennessee-Big Sandy,,,050702020202,RL_6A_025436,IV,,,,,,,,,,,,,,,,,,,,,
,Str,VDEQ_BUG,6AXGN000.02,,37.296572,-82.280425,Bridge #6233 on Rt. 693 off 631,69,Central Appalachians,69d,Dissected Appalachian Plateau,BS35,SWRO,Southwest,Russell Fork-Beaver Creek,N,BS,Beaver Creek-Russell Fork,0507020207,Tennessee and Big Sandy River Basin,6A,Tennessee-Big Sandy,Buchanan,027,050702020703,RL_6A_025177,IV,,,,,,,,,,,,,,,,,,,,,
,Str,VDEQ_BUG,6BCAL004.01,6BCAL004.01_2013,36.95108333,-82.79263889,Middle Stonega across RR,69,Central Appalachians,69d,Dissected Appalachian Plateau,TP03,SWRO,Southwest,Callahan Creek,N,TP,Callahan Creek,0601020601,Tennessee and Big Sandy River Basin,6B,Tennessee-Clinch,Wise,195,060102060103,RL_6B_003656,IV,,,,,3,8.568108831,556,1135,805.1063085,144.6320373,579,0,47.15789795,20.33023806,7.879201113,47.15789795,2403.26,94.61658653,,46.75317485,1187.53
,Str,VDEQ_BUG,6BGUE006.50,,36.92945,-82.45654,Guest River Bridge #1058 on Rt. 72,69,Central Appalachians,69d,Dissected Appalachian Plateau,TC21,SWRO,Southwest,Guest River-Toms Creek,N,TC,Toms Creek-Guest River,0601020505,Tennessee and Big Sandy River Basin,6B,Tennessee-Clinch,Wise,195,060102050503,RL_6B_011997,IV,,,,,,,,,,,,,,,,,,,,,
,Str,VDEQ_BUG,6BLWS000.90,6BLWS000.90_2016,37.00472222,-81.97361111,"Rt 624, below STP",67,Ridge and Valley,67f,Southern Limestone/Dolomite Valleys and Low Rolling Hills,TC10,SWRO,Southwest,Lewis Creek-Laurel Branch,N,TC,Laurel Branch-Lewis Creek,0601020503,Tennessee and Big Sandy River Basin,6B,Tennessee-Clinch,Russell,167,060102050301,RL_6B_022168,IV,,,,,3,21.26025204,547,1127,713.9749087,83.59423888,580,0,50.40597534,17.42689675,8.027330482,50.40597534,7119.31,280.2879466,,44.51774058,1130.75
,Str,VDEQ_BUG,6BPOW179.20,6BPOW179.20_2017,36.86905556,-82.77577778,IN BIG STONE GAP AT GAGING STATION,69,Central Appalachians,69d,Dissected Appalachian Plateau,TP04,SWRO,Southwest,Powell River-Pigeon Creek,N,TP,Pigeon Creek-Powell River,0601020601,Tennessee and Big Sandy River Basin,6B,Tennessee-Clinch,Wise,195,060102060104,RL_6B_004020,IV,,,,,4,112.0144529,445,1272,747.5726688,137.9476286,827,0,57.59560776,17.64978876,8.116926469,57.59560776,32276,1230.75,1270.709348,48.45475058,
,Str,VDEQ_BUG,6BSEL001.81,,36.89694444,-82.455,N of Rt 72,69,Central Appalachians,69d,Dissected Appalachian Plateau,TC21,SWRO,Southwest,Guest River-Toms Creek,N,TC,Toms Creek-Guest River,0601020505,Tennessee and Big Sandy River Basin,6B,Tennessee-Clinch,Wise,195,060102050503,,,,,,,,,,,,,,,,,,,,,,,
,Str,VDEQ_BUG,6CBEV015.27,,36.59503056,-82.18519722,"STATE STREET & 8TH IN BRISTOL, VA-TENN L",67,Ridge and Valley,67f,Southern Limestone/Dolomite Valleys and Low Rolling Hills,TH21,SWRO,Southwest,Beaver Creek-Little Creek,N,TH,Little Creek-Beaver Creek,0601010205,Tennessee and Big Sandy River Basin,6C,Tennessee-Holston,,,060101020501,RL_6C_008364,IV,,,,,,,,,,,,,,,,,,,,,
,Str,VDEQ_BUG,6CBYS000.08,,36.73666667,-81.79638889,Rt. 735 at Bramblewood Farm,67,Ridge and Valley,67f,Southern Limestone/Dolomite Valleys and Low Rolling Hills,TH13,SWRO,Southwest,Middle Fork Holston River-Hutton Creek,N,TH,Hutton Creek-Middle Fork Holston River,0601010203,Tennessee and Big Sandy River Basin,6C,Tennessee-Holston,Washington,191,060101020306,RL_6C_019922,IV,,,,,,,,,,,,,,,,,,,,,
,Str,VDEQ_BUG,6CCED000.14,,36.71555555,-81.83166667,OFF ROUTE 803 AT MOCK MILL,67,Ridge and Valley,67f,Southern Limestone/Dolomite Valleys and Low Rolling Hills,TH14,SWRO,Southwest,Middle Fork Holston River-Cedar Creek,N,TH,Cedar Creek-Middle Fork Holston River,0601010203,Tennessee and Big Sandy River Basin,6C,Tennessee-Holston,Washington,191,060101020307,,,,,,,,,,,,,,,,,,,,,,,
,Str,VDEQ_BUG,6CGRN003.29,6CGRN003.29_2007,36.73833333,-82.04,N of Carvosso Church,67,Ridge and Valley,67f,Southern Limestone/Dolomite Valleys and Low Rolling Hills,TH35,SWRO,Southwest,North Fork Holston River-Little Creek,N,TH,Little Creek-North Fork Holston River,0601010103,Tennessee and Big Sandy River Basin,6C,Tennessee-Holston,Washington,191,060101010301,RL_6C_016188,V,,,Yes,,2,2.205726992,598,751,666.2097394,28.56970184,153,0,30.23209381,9.520879191,4.50421208,30.23209381,1123.62,1123.62,44.23703176,44.23703176,
,Str,VDEQ_BUG,6CTAT000.50,,36.74777778,-81.79083333,Off Rt. 736 across from quarry,67,Ridge and Valley,67f,Southern Limestone/Dolomite Valleys and Low Rolling Hills,TH13,SWRO,Southwest,Middle Fork Holston River-Hutton Creek,N,TH,Hutton Creek-Middle Fork Holston River,0601010203,Tennessee and Big Sandy River Basin,6C,Tennessee-Holston,Washington,191,060101020306,RL_6C_019966,IV,,,,,,,,,,,,,,,,,,,,,
,Str,VDEQ_BUG,6CWLF005.95,6CWLF005.95_2011,36.67055556,-81.97,"Off Rt 75, N of WTP ponds",67,Ridge and Valley,67i,Southern Dissected Ridges and Knobs,TH16,SWRO,Southwest,Wolf Creek-Spoon Gap Creek,N,TH,Spoon Gap Creek-Wolf Creek,0601010204,Tennessee and Big Sandy River Basin,6C,Tennessee-Holston,Washington,191,060101020402,RL_6C_015626,IV,,,,,4,16.43463143,565,754,644.2116076,26.52336596,189,0,39.1414566,6.571411089,4.42626535,39.1414566,4482.26,176.4670244,,43.69057477,1109.74
,Str,VDEQ_BUG,6CXAN000.89,,36.70955,-81.90765,"UT to Fifteenmile Creek, N of Watauga Rd",67,Ridge and Valley,67f,Southern Limestone/Dolomite Valleys and Low Rolling Hills,TH15,SWRO,Southwest,Fifteenmile Creek,N,TH,Fifteenmile Creek,0601010204,Tennessee and Big Sandy River Basin,6C,Tennessee-Holston,Washington,191,060101020401,RL_6C_017187,IV,,,,,,,,,,,,,,,,,,,,,
,Str,VDEQ_BUG,6CXEO000.25,6CXEO000.25_2009,36.63861111,-82.26027778,@Valley Institute,67,Ridge and Valley,67f,Southern Limestone/Dolomite Valleys and Low Rolling Hills,TH40,SWRO,Southwest,Cove Creek,N,TH,Cove Creek,0601010103,Tennessee and Big Sandy River Basin,6C,Tennessee-Holston,Washington,191,060101010306,RL_6C_008420,IV,,,,,2,0.142803629,559,694,618.2171053,35.56963474,135,0.502218962,34.58115768,13.86708782,5.734875036,34.07893872,1145.96,1145.96,45.1165598,45.1165598,
,Str,VDEQ_BUG,9-BST069.21,9-BST069.21_2016,37.260175,-81.28266945,Off Parsley St. off Rt. 102,69,Central Appalachians,69d,Dissected Appalachian Plateau,NE86,SWRO,Southwest,Bluestone River-Brush Fork,N,NE,Brush Fork-Bluestone River,0505000209,New River Basin,9,New,Tazewell,185,050500020901,RL_09_042282,IV,u,,,,3,39.91757785,711,1335,854.6859873,105.0422727,624,0,55.47816086,13.08941286,7.343600314,55.47816086,12390.35,975.77,487.8093185,38.41616248,
,Str,VDEQ_BUG,9-BUH003.23,,36.600803,-81.168256,Brush Creek along Rt. 703 / Hardin Rd.,66,Blue Ridge,66c,New River Plateau,NE10,SWRO,Southwest,New River-Brush Creek-Little Brush Creek,N,NE,Brush Creek-New River,0505000104,New River Basin,9,New,Grayson,077,050500010403,RL_09_028681,IV,v,,,,,,,,,,,,,,,,,,,,
,Str,VDEQ_BUG,9-LRR012.30,9-LRR012.30_2012,37.25666667,-81.45916667,SR 758 near WVA,69,Central Appalachians,69d,Dissected Appalachian Plateau,NE88,SWRO,Southwest,Bluestone River-Laurel Fork,N,NE,Laurel Fork-Bluestone River,0505000209,New River Basin,9,New,Tazewell,185,050500020903,RL_09_042268,IV,u,,,,1,1.577086961,780,930,844.4141289,33.24093923,150,0,41.09741592,13.94154976,7.129672893,41.09741592,1044.19,1020.98,41.10986472,40.1960847,
,Str,VDEQ_BUG,9-LRR012.30,9-LRR012.30_2014,37.25666667,-81.45916667,SR 758 near WVA,69,Central Appalachians,69d,Dissected Appalachian Plateau,NE88,SWRO,Southwest,Bluestone River-Laurel Fork,N,NE,Laurel Fork-Bluestone River,0505000209,New River Basin,9,New,Tazewell,185,050500020903,RL_09_042268,IV,u,,,,1,1.577086961,780,930,844.4141289,33.24093923,150,0,41.09741592,13.94154976,7.129672893,41.09741592,1044.19,1020.98,41.10986472,40.1960847,
,Str,VDEQ_BUG,9-LRR012.30,9-LRR012.30_2016,37.25666667,-81.45916667,SR 758 near WVA,69,Central Appalachians,69d,Dissected Appalachian Plateau,NE88,SWRO,Southwest,Bluestone River-Laurel Fork,N,NE,Laurel Fork-Bluestone River,0505000209,New River Basin,9,New,Tazewell,185,050500020903,RL_09_042268,IV,u,,,,1,1.577086961,780,930,844.4141289,33.24093923,150,0,41.09741592,13.94154976,7.129672893,41.09741592,1044.19,1020.98,41.10986472,40.1960847,
,Str,VDEQ_BUG,9-LRR012.30,9-LRR012.30_2018,37.25666667,-81.45916667,SR 758 near WVA,69,Central Appalachians,69d,Dissected Appalachian Plateau,NE88,SWRO,Southwest,Bluestone River-Laurel Fork,N,NE,Laurel Fork-Bluestone River,0505000209,New River Basin,9,New,Tazewell,185,050500020903,RL_09_042268,IV,u,,,,1,1.577086961,780,930,844.4141289,33.24093923,150,0,41.09741592,13.94154976,7.129672893,41.09741592,1044.19,1020.98,41.10986472,40.1960847,
,Str,VDEQ_BUG,9-MCE000.27,9-MCE000.27_2016,36.94396389,-81.24885556,Off Rt.680,67,Ridge and Valley,67f,Southern Limestone/Dolomite Valleys and Low Rolling Hills,NE26,SWRO,Southwest,Reed Creek-Hutson Branch,N,NE,Hutson Branch-Reed Creek,0505000109,New River Basin,9,New,Wythe,197,050500010901,RL_09_031861,VI,,,Yes,,3,14.72171415,688,1014,783.9226831,52.60108051,326,0,37.77479553,8.693112247,5.525030945,37.77479553,5102.6,984.97,200.8898723,38.7783674,
,Str,VDEQ_BUG,9-NBS003.08,,37.209367,-80.965353,West of Rt. 608,67,Ridge and Valley,67g,Southern Shale Valleys,NE69,SWRO,Southwest,Nobusiness Creek,N,NE,Nobusiness Creek,0505000201,New River Basin,9,New,Bland,021,050500020104,RL_09_039765,VI,,,Yes,,,,,,,,,,,,,,,,,,
,Str,VDEQ_BUG,9-TKY001.55,9-TKY001.55_2015,36.7278,-81.1359,Off Rt. 656,66,Blue Ridge,66c,New River Plateau,NE14,SWRO,Southwest,Elk Creek-Turkey Fork,N,NE,Turkey Fork-Elk Creek,0505000105,New River Basin,9,New,Grayson,077,050500010503,RL_09_029665,IV,v,,,,2,5.673647665,782,1162,903.5414716,88.62269494,380,0,46.30083847,12.738589,7.560867005,46.30083847,2155.82,1087.28,84.87484898,42.80632233,
,Str,VDEQ_BUG,9-XFH000.92,9-XFH000.92_2012,36.63833333,-81.150555550000007,Off Route 654,66,Blue Ridge,66c,New River Plateau,NE09,SWRO,Southwest,Peach Bottom Creek,N,NE,Peach Bottom Creek,0505000104,New River Basin,9,New,Grayson,077,050500010402,,,,,,,1,0.270500407,781,1057,857.8384075,61.16517813,276,0.355126977,29.67293167,12.12087515,6.894371494,29.31780469,2133.61,1005.5,84.00043906,39.58663555,
,Ref?,VDEQ_BUG,6BIND010.25,,36.611495,-83.566124,Off Rt 691 (0.1 mi above Pendleton Br),67,Ridge and Valley,67f,Southern Limestone/Dolomite Valleys and Low Rolling Hills,TP18,SWRO,Southwest,Indian Creek,N,TP,Indian Creek,0601020604,Tennessee and Big Sandy River Basin,6B,Tennessee-Clinch,Lee,105,060102060403,RL_6B_000021,IV,,,,,,,,,,,,,,,,,,,,,
,Ref?,VDEQ_BUG,6BLTL007.84,,36.86027778,-82.11222222,Rt 841 off Rt 19/460 S of Willis,67,Ridge and Valley,67f,Southern Limestone/Dolomite Valleys and Low Rolling Hills,TC13,SWRO,Southwest,Big Cedar Creek,N,TC,Big Cedar Creek,0601020503,Tennessee and Big Sandy River Basin,6B,Tennessee-Clinch,Russell,167,060102050304,RL_6B_016621,IV,,,,,,,,,,,,,,,,,,,,,
,Ref?,VDEQ_BUG,6BLTR022.98,6BLTR022.98_2012,37.02611111,-81.75388889,North of Route 603,67,Ridge and Valley,67f,Southern Limestone/Dolomite Valleys and Low Rolling Hills,TC07,SWRO,Southwest,Little River-Liberty Creek,N,TC,Liberty Creek-Little River,0601020502,Tennessee and Big Sandy River Basin,6B,Tennessee-Clinch,Tazewell,185,060102050202,,,,,,,3,74.64610338,631,1432,886.0044269,132.7524264,801,0,52.60020447,13.90355169,8.081619116,52.60020447,22104.86,1105.17,870.2705487,43.51065342,
,Ref?,VDEQ_BUG,6BMOL001.75,6BMOL001.75_2011,36.78527778,-82.32305556,Upstream of Porter Hollow confluence,67,Ridge and Valley,67f,Southern Limestone/Dolomite Valleys and Low Rolling Hills,TC28,SWRO,Southwest,Copper Creek-Grassy Creek,N,TC,Grassy Creek-Copper Creek,0601020507,Tennessee and Big Sandy River Basin,6B,Tennessee-Clinch,Russell,167,060102050701,,,,,,,2,6.587178244,575,784,680.6925974,37.15266549,209,0,34.20344925,11.32799269,4.657808111,34.20344925,1149.9,1154.54,45.27167799,45.45435525,
,Ref?,VDEQ_BUG,6BMTN003.94,6BMTN003.94_2010,36.62305556,-83.35527778,South of Edds Mill,67,Ridge and Valley,67f,Southern Limestone/Dolomite Valleys and Low Rolling Hills,TP14,SWRO,Southwest,Martin Creek,N,TP,Martin Creek,0601020603,Tennessee and Big Sandy River Basin,6B,Tennessee-Clinch,Lee,105,060102060305,RL_6B_000264,V,,,Yes,,3,16.90616994,398,798,495.9777032,61.95063087,400,0,46.37892914,11.95794633,6.439659275,46.37892914,6396.54,1244.65,251.8324195,49.00199497,
,Ref?,VDEQ_BUG,6BNFC022.47,,36.72805556,-82.80083333,"N of Duffield, at Industrial Park",69,Central Appalachians,69d,Dissected Appalachian Plateau,TC31,SWRO,Southwest,Upper North Fork Clinch River,N,TC,Upper North Fork Clinch River,0601020508,Tennessee and Big Sandy River Basin,6B,Tennessee-Clinch,Scott,169,060102050801,RL_6B_002756,IV,PWS,Yes,,,,,,,,,,,,,,,,,,,
,Ref?,VDEQ_BUG,6BPLL001.61,6BPLL001.61_2008,36.86555556,-82.77166667,In Big Stone Gap,69,Central Appalachians,69d,Dissected Appalachian Plateau,TP05,SWRO,Southwest,South Fork Powell River-Butcher Fork,N,TP,Butcher Fork-South Fork Powell River,0601020601,Tennessee and Big Sandy River Basin,6B,Tennessee-Clinch,Wise,195,060102060105,RL_6B_004022,IV,,,,,3,39.7395899,450,1282,732.4469432,204.637592,832,0,57.91243744,15.06274367,8.937677611,57.91243744,13550.87,1230.75,533.499107,48.45475058,
,Ref?,VDEQ_BUG,6BPLL001.61,6BPLL001.61_2013,36.86555556,-82.77166667,In Big Stone Gap,69,Central Appalachians,69d,Dissected Appalachian Plateau,TP05,SWRO,Southwest,South Fork Powell River-Butcher Fork,N,TP,Butcher Fork-South Fork Powell River,0601020601,Tennessee and Big Sandy River Basin,6B,Tennessee-Clinch,Wise,195,060102060105,RL_6B_004022,IV,,,,,3,39.7395899,450,1282,732.4469432,204.637592,832,0,57.91243744,15.06274367,8.937677611,57.91243744,13550.87,1230.75,533.499107,48.45475058,
,Ref?,VDEQ_BUG,6BPWL009.72,6BPWL009.72_2015,36.7965,-83.0017,Off Rt. 606,69,Central Appalachians,69d,Dissected Appalachian Plateau,TP07,SWRO,Southwest,North Fork Powell River-Reeds Creek,N,TP,Reeds Creek-North Fork Powell River,0601020602,Tennessee and Big Sandy River Basin,6B,Tennessee-Clinch,Lee,105,060102060202,RL_6B_001817,V,,,Yes,,4,38.10953915,463,1152,676.2333936,86.94629204,689,0,56.84823227,13.62399758,7.512146572,56.84823227,15240.44,1401.4,600.0176468,55.17325814,
,Ref?,VDEQ_BUG,6BXSD000.74,,36.809169,-82.378381,Off of Rt. 685 (Buckeye Creek Rd.),67,Ridge and Valley,67f,Southern Limestone/Dolomite Valleys and Low Rolling Hills,TC22,SWRO,Southwest,Clinch River-Sinking Creek,N,TC,Sinking Creek-Clinch River,0601020506,Tennessee and Big Sandy River Basin,6B,Tennessee-Clinch,Scott,169,060102050601,RL_6B_009955,IV,,,,,,,,,,,,,,,,,,,,,
,Ref?,VDEQ_BUG,6CBMC004.95,,36.649875,-82.552883,Big Moccasin Creek at Slabtown,67,Ridge and Valley,67h,Southern Sandstone Ridges,TH43,SWRO,Southwest,Big Moccasin Creek-Little Moccasin Creek,N,TH,Little Moccasin Creek-Big Moccasin Creek,0601010104,Tennessee and Big Sandy River Basin,6C,Tennessee-Holston,Scott,169,060101010402,RL_6C_005107,IV,PWS,Yes,,,,,,,,,,,,,,,,,,,
,Ref?,VDEQ_BUG,6CBMC008.61,,36.67510833,-82.528275,Off Rt. 669 off Rt. 71,67,Ridge and Valley,67f,Southern Limestone/Dolomite Valleys and Low Rolling Hills,TH43,SWRO,Southwest,Big Moccasin Creek-Little Moccasin Creek,N,TH,Little Moccasin Creek-Big Moccasin Creek,0601010104,Tennessee and Big Sandy River Basin,6C,Tennessee-Holston,Scott,169,060101010402,RL_6C_005089,IV,,,,,,,,,,,,,,,,,,,,,
,Ref?,VDEQ_BUG,6CBMC036.55,6CBMC036.55_2017,36.739525,-82.315589,farm @ 2310 Moccasin Valley Rd.,67,Ridge and Valley,67f,Southern Limestone/Dolomite Valleys and Low Rolling Hills,TH42,SWRO,Southwest,Big Moccasin Creek-Carr Creek,N,TH,Carr Creek-Big Moccasin Creek,0601010104,Tennessee and Big Sandy River Basin,6C,Tennessee-Holston,Russell,167,060101010401,RL_6C_009799,IV,,,,,3,40.2671662,545,1131,705.2124831,66.12591137,586,0,49.14573288,13.34566176,6.707946369,49.14573288,13823.62,1156.78,544.2373018,45.54254428,
,Ref?,VDEQ_BUG,6CSPO001.45,6CSPO001.45_2014,36.647,-82.0047,Rt. 670,67,Ridge and Valley,67f,Southern Limestone/Dolomite Valleys and Low Rolling Hills,TH16,SWRO,Southwest,Wolf Creek-Spoon Gap Creek,N,TH,Spoon Gap Creek-Wolf Creek,0601010204,Tennessee and Big Sandy River Basin,6C,Tennessee-Holston,Washington,191,060101020402,,,,,,,2,3.081250266,550,717,641.77326,38.28873679,167,0,42.23916245,13.69176266,6.990216451,42.23916245,2225.98,1116.24,87.6370552,43.94648042,
,Ref?,VDEQ_BUG,6CSTC000.20,6CSTC000.20_2014,36.7521,-81.6495,Rt. 600,67,Ridge and Valley,67f,Southern Limestone/Dolomite Valleys and Low Rolling Hills,TH02,SWRO,Southwest,South Fork Holston River-Rowland Creek,N,TH,Rowland Creek-South Fork Holston River,0601010201,Tennessee and Big Sandy River Basin,6C,Tennessee-Holston,Smyth,173,060101020102,RL_6C_020999,IV,,,,,2,5.292203171,633,1321,864.5076868,170.0795061,688,0,49.29597473,13.7324862,8.356104151,49.29597473,2311.58,1064.77,91.00713576,41.92010138,
,Ref,VDEQ_BUG,4BELK000.96,4BELK000.96_2011,36.64444444,-80.64722222,@ Rt 823 crossing,66,Blue Ridge,66d,Southern Crystalline Ridges and Mountains,YA05,SWRO,Southwest,Lovills Creek,N,YA,Lovills Creek,0304010108,Roanoke River Basin,4B,Yadkin,Carroll,035,030401010803,,,,,,,2,3.252623587,450,963,776.8115284,123.9107318,513,0,51.0811615,14.07146764,7.215239682,51.0811615,1171.81,1171.81,46.13427688,46.13427688,
,Ref,VDEQ_BUG,6AABR000.71,,37.1175,-82.18388889,"Rt 80, West of Bee",69,Central Appalachians,69d,Dissected Appalachian Plateau,BS18,SWRO,Southwest,Russell Fork-Fox Creek,N,BS,Fox Creek-Russell Fork,0507020204,Tennessee and Big Sandy River Basin,6A,Tennessee-Big Sandy,Dickenson,051,050702020403,RL_6A_014672,IV,,,,,,,,,,,,,,,,,,,,,
,Ref,VDEQ_BUG,6ABAR000.08,,37.10111111,-82.67916667,In Canepatch Campground off Rt. 671,69,Central Appalachians,69d,Dissected Appalachian Plateau,BS28,SWRO,Southwest,North Fork Pound River-South Fork Pound River,N,BS,South Fork Pound River-North Fork Pound River,0507020205,Tennessee and Big Sandy River Basin,6A,Tennessee-Big Sandy,Wise,195,050702020501,RL_6A_004381,IV,PWS,Yes,,,,,,,,,,,,,,,,,,,
,Ref,VDEQ_BUG,6AFOX001.69,6AFOX001.69_2004,37.15916667,-82.16611111,Rt. 619 off Rt. 605 off 80 near Cannady,69,Central Appalachians,69d,Dissected Appalachian Plateau,BS18,SWRO,Southwest,Russell Fork-Fox Creek,N,BS,Fox Creek-Russell Fork,0507020204,Tennessee and Big Sandy River Basin,6A,Tennessee-Big Sandy,Buchanan,027,050702020403,RL_6A_014917,IV,,,,,2,3.433244447,444,749,612.6732193,61.70028829,305,0.502218962,44.76444626,20.41327051,8.428449511,44.2622273,2309.45,1145.47,90.92327745,45.09726845,
,Ref,VDEQ_BUG,6AFOX001.69,6AFOX001.69_2011,37.15916667,-82.16611111,Rt. 619 off Rt. 605 off 80 near Cannady,69,Central Appalachians,69d,Dissected Appalachian Plateau,BS18,SWRO,Southwest,Russell Fork-Fox Creek,N,BS,Fox Creek-Russell Fork,0507020204,Tennessee and Big Sandy River Basin,6A,Tennessee-Big Sandy,Buchanan,027,050702020403,RL_6A_014917,IV,,,,,1,3.433244447,444,749,612.6732193,61.70028829,305,0.502218962,44.76444626,20.41327051,8.428449511,44.2622273,2309.45,1145.47,90.92327745,45.09726845,
,Ref,VDEQ_BUG,6AFOX001.69,6AFOX001.69_2013,37.15916667,-82.16611111,Rt. 619 off Rt. 605 off 80 near Cannady,69,Central Appalachians,69d,Dissected Appalachian Plateau,BS18,SWRO,Southwest,Russell Fork-Fox Creek,N,BS,Fox Creek-Russell Fork,0507020204,Tennessee and Big Sandy River Basin,6A,Tennessee-Big Sandy,Buchanan,027,050702020403,RL_6A_014917,IV,,,,,1,3.433244447,444,749,612.6732193,61.70028829,305,0.502218962,44.76444626,20.41327051,8.428449511,44.2622273,2309.45,1145.47,90.92327745,45.09726845,
,Ref,VDEQ_BUG,6AFOX001.69,6AFOX001.69_2015,37.15916667,-82.16611111,Rt. 619 off Rt. 605 off 80 near Cannady,69,Central Appalachians,69d,Dissected Appalachian Plateau,BS18,SWRO,Southwest,Russell Fork-Fox Creek,N,BS,Fox Creek-Russell Fork,0507020204,Tennessee and Big Sandy River Basin,6A,Tennessee-Big Sandy,Buchanan,027,050702020403,RL_6A_014917,IV,,,,,2,3.433244447,444,749,612.6732193,61.70028829,305,0.502218962,44.76444626,20.41327051,8.428449511,44.2622273,2309.45,1145.47,90.92327745,45.09726845,
,Ref,VDEQ_BUG,6AFOX001.69,6AFOX001.69_2017,37.15916667,-82.16611111,Rt. 619 off Rt. 605 off 80 near Cannady,69,Central Appalachians,69d,Dissected Appalachian Plateau,BS18,SWRO,Southwest,Russell Fork-Fox Creek,N,BS,Fox Creek-Russell Fork,0507020204,Tennessee and Big Sandy River Basin,6A,Tennessee-Big Sandy,Buchanan,027,050702020403,RL_6A_014917,IV,,,,,2,3.433244447,444,749,612.6732193,61.70028829,305,0.502218962,44.76444626,20.41327051,8.428449511,44.2622273,2309.45,1145.47,90.92327745,45.09726845,
,Ref,VDEQ_BUG,6AHAT000.12,,37.05381111,-82.32558056,Rt. 604,69,Central Appalachians,69d,Dissected Appalachian Plateau,BS23,SWRO,Southwest,McClure Creek-Roaring Fork,N,BS,Roaring Fork-McClure Creek,0507020203,Tennessee and Big Sandy River Basin,6A,Tennessee-Big Sandy,Dickenson,051,050702020302,RL_6A_013220,IV,,,,,,,,,,,,,,,,,,,,,
,Ref,VDEQ_BUG,6ALLF001.69,,37.12522778,-82.27343889,Off Rt. 679,69,Central Appalachians,69d,Dissected Appalachian Plateau,BS20,SWRO,Southwest,Lick Creek-Left Fork,N,BS,Left Fork-Lick Creek,0507020204,Tennessee and Big Sandy River Basin,6A,Tennessee-Big Sandy,Dickenson,051,050702020405,RL_6A_014641,IV,,,,,,,,,,,,,,,,,,,,,
,Ref,VDEQ_BUG,6APLL000.17,,37.10638889,-82.67111111,Off Rt. 671,69,Central Appalachians,69d,Dissected Appalachian Plateau,BS28,SWRO,Southwest,North Fork Pound River-South Fork Pound River,N,BS,South Fork Pound River-North Fork Pound River,0507020205,Tennessee and Big Sandy River Basin,6A,Tennessee-Big Sandy,Wise,195,050702020501,RL_6A_004368,IV,PWS,Yes,,,,,,,,,,,,,,,,,,,
,Ref,VDEQ_BUG,6BBUC000.24,,36.93083333,-82.535,Off Burns Creek Road at Tacoma,69,Central Appalachians,69d,Dissected Appalachian Plateau,TC21,SWRO,Southwest,Guest River-Toms Creek,N,TC,Toms Creek-Guest River,0601020505,Tennessee and Big Sandy River Basin,6B,Tennessee-Clinch,Wise,195,060102050503,RL_6B_011292,V,,,Yes,,,,,,,,,,,,,,,,,,
,Ref,VDEQ_BUG,6BCOC001.19,,36.82194444,-82.41166667,W of Barb Hollow,67,Ridge and Valley,67f,Southern Limestone/Dolomite Valleys and Low Rolling Hills,TC22,SWRO,Southwest,Clinch River-Sinking Creek,N,TC,Sinking Creek-Clinch River,0601020506,Tennessee and Big Sandy River Basin,6B,Tennessee-Clinch,Scott,169,060102050601,RL_6B_007353,V,,,Yes,,,,,,,,,,,,,,,,,,
,Ref,VDEQ_BUG,6BCOV007.56,,36.791639,-82.69545,Along Rt. 722,69,Central Appalachians,69d,Dissected Appalachian Plateau,TC25,SWRO,Southwest,Cove Creek,N,TC,Cove Creek,0601020506,Tennessee and Big Sandy River Basin,6B,Tennessee-Clinch,Scott,169,060102050604,RL_6B_003412,V,,,Yes,,,,,,,,,,,,,,,,,,
,Ref,VDEQ_BUG,6BCRC000.20,,36.93888889,-82.59416667,South of Ramsey,69,Central Appalachians,69d,Dissected Appalachian Plateau,TC19,SWRO,Southwest,Guest River-Rocky Fork,N,TC,Rocky Fork-Guest River,0601020505,Tennessee and Big Sandy River Basin,6B,Tennessee-Clinch,Norton,720,060102050501,RL_6B_011294,IV,,,,,,,,,,,,,,,,,,,,,
,Ref,VDEQ_BUG,6BCRC002.17,,36.92333333,-82.59222222,"South of Ramsey, unpaved road",69,Central Appalachians,69d,Dissected Appalachian Plateau,TC19,SWRO,Southwest,Guest River-Rocky Fork,N,TC,Rocky Fork-Guest River,0601020505,Tennessee and Big Sandy River Basin,6B,Tennessee-Clinch,Wise,195,060102050501,RL_6B_011350,V,,,Yes,,,,,,,,,,,,,,,,,,
,Ref,VDEQ_BUG,6BLSR001.48,,36.861419,-82.447089,Off NF- 805 off Rt. 72,69,Central Appalachians,69d,Dissected Appalachian Plateau,TC23,SWRO,Southwest,Clinch River-Little Stony Creek,N,TC,Little Stony Creek-Clinch River,0601020506,Tennessee and Big Sandy River Basin,6B,Tennessee-Clinch,Scott,169,060102050602,RL_6B_007319,V,ESW-29,,Yes,Yes,,,,,,,,,,,,,,,,,
,Ref,VDEQ_BUG,6BLSR004.22,,36.86888889,-82.46527778,Off F.R. 701,69,Central Appalachians,69d,Dissected Appalachian Plateau,TC23,SWRO,Southwest,Clinch River-Little Stony Creek,N,TC,Little Stony Creek-Clinch River,0601020506,Tennessee and Big Sandy River Basin,6B,Tennessee-Clinch,Scott,169,060102050602,,,,,,,,,,,,,,,,,,,,,,,
,Ref,VDEQ_BUG,6BPAT000.13,,36.68833333,-82.86916667,"Rt 603, E of Powers Ford",67,Ridge and Valley,67f,Southern Limestone/Dolomite Valleys and Low Rolling Hills,TC31,SWRO,Southwest,Upper North Fork Clinch River,N,TC,Upper North Fork Clinch River,0601020508,Tennessee and Big Sandy River Basin,6B,Tennessee-Clinch,Scott,169,060102050801,RL_6B_002753,IV,,,,,,,,,,,,,,,,,,,,,
,Ref,VDEQ_BUG,6BPLC000.49,,36.67916667,-82.5725,"SE of Cox Mill, Rt 619",67,Ridge and Valley,67f,Southern Limestone/Dolomite Valleys and Low Rolling Hills,TC30,SWRO,Southwest,Copper Creek-Obeys Creek,N,TC,Obeys Creek-Copper Creek,0601020507,Tennessee and Big Sandy River Basin,6B,Tennessee-Clinch,Scott,169,060102050703,RL_6B_004715,IV,,,,,,,,,,,,,,,,,,,,,
,Ref,VDEQ_BUG,6BSNY005.68,,36.82666667,-82.60861111,Off Rt. 657,69,Central Appalachians,69d,Dissected Appalachian Plateau,TC24,SWRO,Southwest,Stony Creek-Straight Fork,N,TC,Straight Fork-Stony Creek,0601020506,Tennessee and Big Sandy River Basin,6B,Tennessee-Clinch,Scott,169,060102050603,RL_6B_006690,V,,,Yes,,,,,,,,,,,,,,,,,,
,Ref,VDEQ_BUG,6BTRA000.50,,36.72023889,-83.19365278,Off Rt. 656 off Rt. 659,67,Ridge and Valley,67h,Southern Sandstone Ridges,TP12,SWRO,Southwest,Hardy Creek,N,TP,Hardy Creek,0601020603,Tennessee and Big Sandy River Basin,6B,Tennessee-Clinch,Lee,105,060102060303,RL_6B_000491,IV,,,,,,,,,,,,,,,,,,,,,
,Ref,VDEQ_BUG,6CBER004.10,,36.91111111,-81.40111111,Off Rt. 694,67,Ridge and Valley,67i,Southern Dissected Ridges and Knobs,TH09,SWRO,Southwest,Bear Creek,N,TH,Bear Creek,0601010203,Tennessee and Big Sandy River Basin,6C,Tennessee-Holston,Smyth,173,060101020302,RL_6C_030535,IV,,,,,,,,,,,,,,,,,,,,,
,Ref,VDEQ_BUG,6CBLC002.90,6CBLC002.90_2015,36.6781,-81.5785,Off Rt. 603,66,Blue Ridge,66c,New River Plateau,TH04,SWRO,Southwest,Whitetop Laurel Creek-Big Laurel Creek,N,TH,Big Laurel Creek-Whitetop Laurel Creek,0601010202,Tennessee and Big Sandy River Basin,6C,Tennessee-Holston,Smyth,173,060101020201,RL_6C_027087,VI,,,Yes,,2,5.724275967,979,1743,1237.086645,156.1609789,764,0,59.69552231,14.77390875,6.802501821,59.69552231,3003.41,1373.08,118.244552,54.05829691,
,Ref,VDEQ_BUG,6CBRY000.78,,36.802339,-82.029247,Bryson Cove upstream of Rt. 689,67,Ridge and Valley,67h,Southern Sandstone Ridges,TH34,SWRO,Southwest,Brumley Creek,N,TH,Brumley Creek,0601010102,Tennessee and Big Sandy River Basin,6C,Tennessee-Holston,Washington,191,060101010206,RL_6C_016828,VI,,,Yes,,,,,,,,,,,,,,,,,,
,Ref,VDEQ_BUG,6CCMR004.65,6CCMR004.65_2018,36.721575,-81.477539,Rt. 650 off Rt. 16 S,66,Blue Ridge,66e,Southern Sedimentary Ridges,TH01,SWRO,Southwest,South Fork Holston River-Dickey Creek,N,TH,Dickey Creek-South Fork Holston River,0601010201,Tennessee and Big Sandy River Basin,6C,Tennessee-Holston,Smyth,173,060101020101,RL_6C_027882,VI,,,Yes,,1,1.949019959,885,1297,1073.488207,78.57556662,412,0.355126977,41.72073746,15.41990994,7.993828067,41.36561048,1320.95,1320.95,52.0059336,52.0059336,
,Ref,VDEQ_BUG,6CCOV002.54,6CCOV002.54_2012,36.6525,-82.36305556,Southwest of Baker Cemetery,67,Ridge and Valley,67g,Southern Shale Valleys,TH40,SWRO,Southwest,Cove Creek,N,TH,Cove Creek,0601010103,Tennessee and Big Sandy River Basin,6C,Tennessee-Holston,Scott,169,060101010306,,,,,,,3,17.98575271,417,782,559.6031026,68.19189347,365,0,54.7586441,15.27235603,7.544170133,54.7586441,6727.16,1101.96,264.8489619,43.3842754,
,Ref,VDEQ_BUG,6CFEA001.39,6CFEA001.39_2017,36.654908,-81.722903,Feathercamp Branch u/s of Rt. 58,66,Blue Ridge,66e,Southern Sedimentary Ridges,TH04,SWRO,Southwest,Whitetop Laurel Creek-Big Laurel Creek,N,TH,Big Laurel Creek-Whitetop Laurel Creek,0601010202,Tennessee and Big Sandy River Basin,6C,Tennessee-Holston,Washington,191,060101020201,RL_6C_019268,VI,,,Yes,,1,0.455391476,874,1155,1017.057891,56.92831025,281,1.463926196,37.83412933,20.21456708,7.021547842,36.37020314,2438.03,1144.62,95.9854849,45.06380386,
,Ref,VDEQ_BUG,6CGAS000.45,6CGAS000.45_2014,36.742,-82.1576,Rt. 625 off Rt. 700,67,Ridge and Valley,67g,Southern Shale Valleys,TH36,SWRO,Southwest,Smith Creek,N,TH,Smith Creek,0601010103,Tennessee and Big Sandy River Basin,6C,Tennessee-Holston,Washington,191,060101010302,RL_6C_010537,IV,,,,,2,6.641913527,439,788,615.7114138,65.64776292,349,0,43.21937943,14.07101918,7.099696913,43.21937943,2256.11,1122.25,88.82327631,44.18309473,
,Ref,VDEQ_BUG,6CHUR000.07,,36.721369,-81.487981,Off FR 84 nr Hurricane Ck Campground,66,Blue Ridge,66e,Southern Sedimentary Ridges,TH01,SWRO,Southwest,South Fork Holston River-Dickey Creek,N,TH,Dickey Creek-South Fork Holston River,0601010201,Tennessee and Big Sandy River Basin,6C,Tennessee-Holston,Smyth,173,060101020101,RL_6C_027906,VI,,,Yes,,,,,,,,,,,,,,,,,,
,Ref,VDEQ_BUG,6CLAL000.19,6CLAL000.19_2011,36.64944444,-81.82944444,Off Rt 58,67,Ridge and Valley,67f,Southern Limestone/Dolomite Valleys and Low Rolling Hills,TH06,SWRO,Southwest,Laurel Creek-Beaverdam Creek,N,TH,Beaverdam Creek-Laurel Creek,0601010202,Tennessee and Big Sandy River Basin,6C,Tennessee-Holston,Washington,191,060101020203,,,,,,,4,161.1671226,556,1743,987.0865049,211.3263717,1187,0,59.69552231,16.01243226,8.365009288,59.69552231,57836.8,1072.35,2277.0406,42.21852674,
,Ref,VDEQ_BUG,6CLIB001.06,6CLIB001.06_2009,36.95861111,-81.47472222,near Goodwill Church,67,Ridge and Valley,67f,Southern Limestone/Dolomite Valleys and Low Rolling Hills,TH25,SWRO,Southwest,Lick Creek-Lynn Camp Creek,N,TH,Lynn Camp Creek-Lick Creek,0601010101,Tennessee and Big Sandy River Basin,6C,Tennessee-Holston,Smyth,173,060101010102,RL_6C_030522,IV,,,,,3,30.49802104,631,1344,841.893474,128.0665979,713,0,57.61985397,16.77699866,7.548747793,57.61985397,9669,1068.92,380.6694969,42.08348729,
,Ref,VDEQ_BUG,6CLIB005.31,6CLIB005.31_2018,36.991347,-81.443069,Off Rt. 621,67,Ridge and Valley,67h,Southern Sandstone Ridges,TH25,SWRO,Southwest,Lick Creek-Lynn Camp Creek,N,TH,Lynn Camp Creek-Lick Creek,0601010101,Tennessee and Big Sandy River Basin,6C,Tennessee-Holston,Smyth,173,060101010102,RL_6C_030675,IV,,,,,3,21.63726793,658,1344,871.7088745,133.1226601,686,0,48.04720688,16.61395578,7.487863293,48.04720688,7534.39,1065.69,296.6296877,41.95632187,
,Ref,VDEQ_BUG,6CMFH045.83,,36.85388889,-81.48083333,Rt. 693 above Marion,67,Ridge and Valley,67f,Southern Limestone/Dolomite Valleys and Low Rolling Hills,TH10,SWRO,Southwest,Middle Fork Holston River-Staley Creek,N,TH,Staley Creek-Middle Fork Holston River,0601010203,Tennessee and Big Sandy River Basin,6C,Tennessee-Holston,Smyth,173,060101020303,RL_6C_028221,V,PWS,Yes,Yes,,,,,,,,,,,,,,,,,,
,Ref,VDEQ_BUG,6CPNN000.43,,36.66485,-81.62505,Off Rt. 603,66,Blue Ridge,66c,New River Plateau,TH04,SWRO,Southwest,Whitetop Laurel Creek-Big Laurel Creek,N,TH,Big Laurel Creek-Whitetop Laurel Creek,0601010202,Tennessee and Big Sandy River Basin,6C,Tennessee-Holston,Smyth,173,060101020201,RL_6C_027059,VI,,,Yes,,,,,,,,,,,,,,,,,,
,Ref,VDEQ_BUG,6CSFH082.78,6CSFH082.78_2010,36.67805556,-81.79,East of Route 91,67,Ridge and Valley,67f,Southern Limestone/Dolomite Valleys and Low Rolling Hills,TH03,SWRO,Southwest,South Fork Holston River-Mill Creek,N,TH,Mill Creek-South Fork Holston River,0601010201,Tennessee and Big Sandy River Basin,6C,Tennessee-Holston,Washington,191,060101020103,,,,,,,5,134.7748312,562,1415,835.8306368,163.3767149,853,0,62.9586792,12.23979706,8.14067661,62.9586792,42878.51,1038.23,1688.131227,40.87521892,
,Ref,VDEQ_BUG,6CSFH099.18,6CSFH099.18_2010,36.77472222,-81.60888889,Southeast of River Bend Cemetery,67,Ridge and Valley,67f,Southern Limestone/Dolomite Valleys and Low Rolling Hills,TH02,SWRO,Southwest,South Fork Holston River-Rowland Creek,N,TH,Rowland Creek-South Fork Holston River,0601010201,Tennessee and Big Sandy River Basin,6C,Tennessee-Holston,Smyth,173,060101020102,RL_6C_027517,IV,,,,,4,74.14416016,654,1415,916.9396675,143.5398943,761,0,62.9586792,13.2314987,8.04422044,62.9586792,25527.62,1078.88,1005.024952,42.47561349,
,Ref,VDEQ_BUG,6CSGT000.39,,36.64611111,-81.73416667,Rt 58 bridge 1085 near Appalachian Trail,66,Blue Ridge,66e,Southern Sedimentary Ridges,TH04,SWRO,Southwest,Whitetop Laurel Creek-Big Laurel Creek,N,TH,Big Laurel Creek-Whitetop Laurel Creek,0601010202,Tennessee and Big Sandy River Basin,6C,Tennessee-Holston,Washington,191,060101020201,RL_6C_019287,V,,,Yes,,,,,,,,,,,,,,,,,,
,Ref,VDEQ_BUG,6CWLC000.79,,36.62583333,-81.75611111,RR trestle on VA Creeper off US 58,66,Blue Ridge,66e,Southern Sedimentary Ridges,TH04,SWRO,Southwest,Whitetop Laurel Creek-Big Laurel Creek,N,TH,Big Laurel Creek-Whitetop Laurel Creek,0601010202,Tennessee and Big Sandy River Basin,6C,Tennessee-Holston,Washington,191,060101020201,RL_6C_019290,VI,,,Yes,,,,,,,,,,,,,,,,,,
,Ref,VDEQ_BUG,6CWLC010.20,,36.6475,-81.67194445,"ROUTE 728, ABOVE RR TRESTLE (WASHINGTON",66,Blue Ridge,66c,New River Plateau,TH04,SWRO,Southwest,Whitetop Laurel Creek-Big Laurel Creek,N,TH,Big Laurel Creek-Whitetop Laurel Creek,0601010202,Tennessee and Big Sandy River Basin,6C,Tennessee-Holston,Washington,191,060101020201,,,,,,,,,,,,,,,,,,,,,,,
,Ref,VDEQ_BUG,9-CRK020.79,,36.67583333,-80.81166667,near Woodlawn bridge #6490 on Rt 620,66,Blue Ridge,66c,New River Plateau,NE20,SWRO,Southwest,Crooked Creek-Cranberry Creek,N,NE,Cranberry Creek-Crooked Creek,0505000107,New River Basin,9,New,Carroll,035,050500010703,RL_09_035767,VI,,,Yes,,,,,,,,,,,,,,,,,,
,Ref,VDEQ_BUG,9-ECM001.01,9-ECM001.01_2011,36.71694444,-81.27069445,Unpaved road off Rt 658,66,Blue Ridge,66c,New River Plateau,NE13,SWRO,Southwest,Elk Creek-Stone Creek,N,NE,Stone Creek-Elk Creek,0505000105,New River Basin,9,New,Grayson,077,050500010502,RL_09_029262,IV,v,,,,2,1.976208659,888,1266,1032.801112,86.64463525,378,0,41.46482849,12.70219568,6.736567097,41.46482849,5019.84,1254.96,197.6316028,49.4079007,
,Ref,VDEQ_BUG,9-FXC017.18,,36.69722222,-81.50833333,Upstream of horsecamp at AT,66,Blue Ridge,66d,Southern Crystalline Ridges and Mountains,NE05,SWRO,Southwest,Fox Creek-Laurel Creek,N,NE,Laurel Creek-Fox Creek,0505000103,New River Basin,9,New,Grayson,077,050500010303,RL_09_027125,VI,,,Yes,,,,,,,,,,,,,,,,,,
,Ref,VDEQ_BUG,9-GRP001.29,,36.97777778,-81.21083333,North of Route 656,67,Ridge and Valley,67i,Southern Dissected Ridges and Knobs,NE26,SWRO,Southwest,Reed Creek-Hutson Branch,N,NE,Hutson Branch-Reed Creek,0505000109,New River Basin,9,New,Wythe,197,050500010901,,,,,,,,,,,,,,,,,,,,,,,
,Ref,VDEQ_BUG,9-LLK005.44,,36.74575,-80.553519,Laurel Fork along Rt. 630,66,Blue Ridge,66c,New River Plateau,NE35,SWRO,Southwest,Laurel Fork,N,NE,Laurel Fork,0505000113,New River Basin,9,New,Carroll,035,050500011301,RL_09_044878,VI,,,Yes,,,,,,,,,,,,,,,,,,
,Ref,VDEQ_BUG,9-LVR007.16,9-LVR007.16_2014,36.5681,-81.0294,"White Pine Drive, NC",66,Blue Ridge,66c,New River Plateau,NE11,SWRO,Southwest,Little River-Crab Creek,N,NE,Crab Creek-Little River,0505000104,New River Basin,9,New,Grayson,077,050500010407,RL_09_033567,IV,v,,,,4,101.0578853,713,865,766.0094477,26.43596555,152,0.355126977,39.08277893,13.21547485,6.888408643,38.72765195,36627.33,1137.57,1442.021645,44.78624466,
,Ref,VDEQ_BUG,9-LWL000.98,9-LWL000.98_2017,36.630428,-81.399906,Little Wilson Creek along Rt. 16,66,Blue Ridge,66c,New River Plateau,NE03,SWRO,Southwest,Wilson Creek,N,NE,Wilson Creek,0505000103,New River Basin,9,New,Grayson,077,050500010301,RL_09_027309,VI,,,Yes,,2,6.342365664,818,1399,985.0159084,147.9502889,581,0,35.66938019,10.8636456,6.087665004,35.66938019,2778.3,1193.78,109.3819488,46.99923798,
,Ref,VDEQ_BUG,9-MER002.99,9-MER002.99_2008,37.00666667,-80.95611111,South of Cove Mtn Lookout,67,Ridge and Valley,67h,Southern Sandstone Ridges,NE31,SWRO,Southwest,Reed Creek-Miller Creek,N,NE,Miller Creek-Reed Creek,0505000110,New River Basin,9,New,Wythe,197,050500011003,,,,,,,2,3.332201883,680,1022,766.8168629,70.97131297,342,0,39.71874619,11.20635321,7.09030824,39.71874619,955.69,955.69,37.62561087,37.62561087,
,Ref,VDEQ_BUG,9-SDR000.02,,37.19361111,-80.89083333,Off Rt. 671,67,Ridge and Valley,67h,Southern Sandstone Ridges,NE70,SWRO,Southwest,Kimberling Creek-Dismal Creek,N,NE,Dismal Creek-Kimberling Creek,0505000201,New River Basin,9,New,Giles,071,050500020105,RL_09_039713,VI,"PWS, u",Yes,Yes,,,,,,,,,,,,,,,,,,
,Ref,VDEQ_BUG,9-SFK003.38,9-SFK003.38_2010,36.99055556,-81.19333333,North of Favonia off 21/52 in Nat'l Fst,67,Ridge and Valley,67i,Southern Dissected Ridges and Knobs,NE27,SWRO,Southwest,Stony Fork,N,NE,Stony Fork,0505000109,New River Basin,9,New,Wythe,197,050500010902,RL_09_032097,V,,,Yes,,3,16.02748038,702,1216,863.2399201,110.9909192,514,0,58.35778046,15.63813844,7.537268022,58.35778046,5248.06,1037.55,206.616647,40.84844726,
,Ref,VDEQ_BUG,9-WFC034.82,,37.17972222,-81.19083333,At Camp Roland,67,Ridge and Valley,67h,Southern Sandstone Ridges,NE78,SWRO,Southwest,Upper Wolf Creek,N,NE,Upper Wolf Creek,0505000204,New River Basin,9,New,Bland,021,050500020403,,,,,,,,,,,,,,,,,,,,,,,
,Ref,VDEQ_BUG,9-WLS001.78,9-WLS001.78_2015,36.5905,-81.3507,Off Rt. 16,66,Blue Ridge,66c,New River Plateau,NE03,SWRO,Southwest,Wilson Creek,N,NE,Wilson Creek,0505000103,New River Basin,9,New,Grayson,077,050500010301,RL_09_028400,VI,,,Yes,,3,32.03948468,761,1685,1080.889943,226.0790269,924,0,52.30710983,12.23679221,6.221912247,52.30710983,10830.97,1198.7,426.416372,47.19293887,
,Ref,VDEQ_BUG,9-WLS006.45,,36.62166667,-81.400555550000007,West of Volney,66,Blue Ridge,66c,New River Plateau,NE03,SWRO,Southwest,Wilson Creek,N,NE,Wilson Creek,0505000103,New River Basin,9,New,Grayson,077,050500010301,,,,,,,,,,,,,,,,,,,,,,,
,Int,VDEQ_BUG,6ACNR017.24,,37.09861111,-82.47333333,Off Rt. 637,69,Central Appalachians,69d,Dissected Appalachian Plateau,BS33,SWRO,Southwest,Cranesnest River-John W Flannagan Reservoir-Lick Fork,N,BS,Lick Fork-John W Flannagan Reservoir,0507020205,Tennessee and Big Sandy River Basin,6A,Tennessee-Big Sandy,Dickenson,051,050702020506,RL_6A_012800,IV,,,,,,,,,,,,,,,,,,,,,
,Int,VDEQ_BUG,6ACNR021.72,,37.06333333,-82.49,Bridge #6031 on Rt 634 off Rt 72,69,Central Appalachians,69d,Dissected Appalachian Plateau,BS33,SWRO,Southwest,Cranesnest River-John W Flannagan Reservoir-Lick Fork,N,BS,Lick Fork-John W Flannagan Reservoir,0507020205,Tennessee and Big Sandy River Basin,6A,Tennessee-Big Sandy,Dickenson,051,050702020506,RL_6A_012629,IV,,,,,,,,,,,,,,,,,,,,,
,Int,VDEQ_BUG,6ACNW000.07,6ACNW000.07_2014,37.3507,-82.2091,Rt. 610 off Rt. 460 near Conaway WWTP,69,Central Appalachians,69d,Dissected Appalachian Plateau,BS15,SWRO,Southwest,Levisa Fork-Feds Creek,N,BS,Feds Creek-Levisa Fork,0507020202,Tennessee and Big Sandy River Basin,6A,Tennessee-Big Sandy,Buchanan,027,050702020202,RL_6A_025409,IV,,,,,2,7.542677397,277,684,489.0861593,81.02713623,407,0,48.24167252,24.54263524,8.021195196,48.24167252,2289.29,1126.56,90.12957623,44.35277986,
,Int,VDEQ_BUG,6ACRC000.19,,37.040089,-82.374289,On Rt. 652 off Rt. 63,69,Central Appalachians,69d,Dissected Appalachian Plateau,BS22,SWRO,Southwest,Open Fork,N,BS,Open Fork,0507020203,Tennessee and Big Sandy River Basin,6A,Tennessee-Big Sandy,Dickenson,051,050702020301,RL_6A_013168,IV,,,,,,,,,,,,,,,,,,,,,
,Int,VDEQ_BUG,6ADIS007.27,,37.247439,-81.964139,Dismal Creek along Rt. 638,69,Central Appalachians,69d,Dissected Appalachian Plateau,BS11,SWRO,Southwest,Lower Dismal Creek,N,BS,Lower Dismal Creek,0507020201,Tennessee and Big Sandy River Basin,6A,Tennessee-Big Sandy,Buchanan,027,050702020104,RL_6A_026285,V,,,Yes,,,,,,,,,,,,,,,,,,
,Int,VDEQ_BUG,6ADIS017.94,,37.23555556,-81.85555556,"ROUTE 638 ABOVE WHITEWOOD, VIRGINIA (BUC",69,Central Appalachians,69d,Dissected Appalachian Plateau,BS10,SWRO,Southwest,Upper Dismal Creek,N,BS,Upper Dismal Creek,0507020201,Tennessee and Big Sandy River Basin,6A,Tennessee-Big Sandy,Buchanan,027,050702020103,RL_6A_024446,V,,,Yes,,,,,,,,,,,,,,,,,,
,Int,VDEQ_BUG,6ADIS022.34,6ADIS022.34_2013,37.23916667,-81.80166667,Off Rt. 613 near CNX gas facility,69,Central Appalachians,69d,Dissected Appalachian Plateau,BS10,SWRO,Southwest,Upper Dismal Creek,N,BS,Upper Dismal Creek,0507020201,Tennessee and Big Sandy River Basin,6A,Tennessee-Big Sandy,Buchanan,027,050702020103,RL_6A_024460,V,,,Yes,,1,8.083377993,572,930,765.8304984,71.18512854,358,0,48.46469879,19.42533234,7.296951175,48.46469879,2412.85,1223.08,94.99414579,48.15278191,
,Int,VDEQ_BUG,6ADOT000.46,6ADOT000.46_2010,37.05166667,-82.54638889,South of Bold Camp Mtn off SR 635,69,Central Appalachians,69d,Dissected Appalachian Plateau,BS32,SWRO,Southwest,Birchfield Creek,N,BS,Birchfield Creek,0507020205,Tennessee and Big Sandy River Basin,6A,Tennessee-Big Sandy,Wise,195,050702020505,RL_6A_011478,IV,,,,,3,8.856517481,506,861,713.5000709,72.48559958,355,0,51.23697281,14.70657825,7.244146736,51.23697281,2317.84,1151.52,91.25359258,45.33545755,
,Int,VDEQ_BUG,6AGRF002.36,6AGRF002.36_2012,37.1625,-82.01694444,Off Route 624,69,Central Appalachians,69d,Dissected Appalachian Plateau,BS08,SWRO,Southwest,Garden Creek,N,BS,Garden Creek,0507020201,Tennessee and Big Sandy River Basin,6A,Tennessee-Big Sandy,Buchanan,027,050702020101,RL_6A_023254,IV,,,,,3,11.08373513,480,863,665.7942077,73.64600604,383,0,44.85367203,20.36085741,8.03330748,44.85367203,2401.34,1180.22,94.54099593,46.46537942,
,Int,VDEQ_BUG,6AGSS002.37,6AGSS002.37_2018,37.310958,-82.288858,On Rt. 610 off Rt. 80,69,Central Appalachians,69d,Dissected Appalachian Plateau,BS35,SWRO,Southwest,Russell Fork-Beaver Creek,N,BS,Beaver Creek-Russell Fork,0507020207,Tennessee and Big Sandy River Basin,6A,Tennessee-Big Sandy,Buchanan,027,050702020703,RL_6A_025019,IV,PWS,Yes,,,2,6.373116422,332,665,491.0086891,63.34676636,333,0,46.37293625,24.20229532,8.315871209,46.37293625,3509.85,1171.84,138.1831455,46.13545798,
,Int,VDEQ_BUG,6AHNE000.64,,37.02818889,-82.31501944,Off Rt. 757 off Rt. 715,69,Central Appalachians,69d,Dissected Appalachian Plateau,BS23,SWRO,Southwest,McClure Creek-Roaring Fork,N,BS,Roaring Fork-McClure Creek,0507020203,Tennessee and Big Sandy River Basin,6A,Tennessee-Big Sandy,Dickenson,051,050702020302,RL_6A_013185,IV,,,,,,,,,,,,,,,,,,,,,
,Int,VDEQ_BUG,6ALEV158.93,6ALEV158.93_2010,37.19694444,-81.96277778,Upstream of Big Skeggs Hollow,69,Central Appalachians,69d,Dissected Appalachian Plateau,BS09,SWRO,Southwest,Levisa Fork-Grassy Creek,N,BS,Grassy Creek-Levisa Fork,0507020201,Tennessee and Big Sandy River Basin,6A,Tennessee-Big Sandy,Buchanan,027,050702020102,RL_6A_023253,IV,,,,,4,23.1494338,447,883,676.9530444,76.75937501,436,0.355126977,51.61507034,20.63773233,7.865947068,51.25994337,8327.55,1130.47,327.8564763,44.50671695,
,Int,VDEQ_BUG,6AMCR000.55,,37.202428,-82.299357,in Haysi,69,Central Appalachians,69d,Dissected Appalachian Plateau,BS25,SWRO,Southwest,Mcclure River-Big Branch,N,BS,Big Branch-Mcclure River,0507020203,Tennessee and Big Sandy River Basin,6A,Tennessee-Big Sandy,Dickenson,051,050702020304,RL_6A_014479,IV,,,,,,,,,,,,,,,,,,,,,
,Int,VDEQ_BUG,6AMCR005.94,6AMCR005.94_2012,37.17388889,-82.35138889,North of Faith Bible Church,69,Central Appalachians,69d,Dissected Appalachian Plateau,BS25,SWRO,Southwest,Mcclure River-Big Branch,N,BS,Big Branch-Mcclure River,0507020203,Tennessee and Big Sandy River Basin,6A,Tennessee-Big Sandy,Dickenson,051,050702020304,RL_6A_014489,IV,,,,,4,98.05090628,414,936,670.8573357,104.462058,522,0,56.69822311,18.85386747,8.54807084,56.69822311,30290.94,1168.95,1192.557337,46.0216784,
,Int,VDEQ_BUG,6AMCR007.85,6AMCR007.85_2011,37.16222222,-82.36055556,At Clinchco,69,Central Appalachians,69d,Dissected Appalachian Plateau,BS25,SWRO,Southwest,Mcclure River-Big Branch,N,BS,Big Branch-Mcclure River,0507020203,Tennessee and Big Sandy River Basin,6A,Tennessee-Big Sandy,Dickenson,051,050702020304,,,,,,,4,93.39041561,416,936,677.3338631,102.1293059,520,0,56.69822311,18.75897706,8.560035905,56.69822311,29121.99,1154.3,1146.535658,45.44490643,
,Int,VDEQ_BUG,6AMCR009.92,,37.14972222,-82.3725,Low water bridge at Clinchco corp limits,69,Central Appalachians,69d,Dissected Appalachian Plateau,BS25,SWRO,Southwest,Mcclure River-Big Branch,N,BS,Big Branch-Mcclure River,0507020203,Tennessee and Big Sandy River Basin,6A,Tennessee-Big Sandy,Dickenson,051,050702020304,RL_6A_014477,IV,,,,,,,,,,,,,,,,,,,,,
,Int,VDEQ_BUG,6APAW001.22,6APAW001.22_2009,37.17305556,-82.19611111,NE of Cannady,69,Central Appalachians,69d,Dissected Appalachian Plateau,BS21,SWRO,Southwest,Russell Fork-Pawpaw Creek,N,BS,Pawpaw Creek-Russell Fork,0507020204,Tennessee and Big Sandy River Basin,6A,Tennessee-Big Sandy,Buchanan,027,050702020406,RL_6A_014936,IV,,,,,2,3.973179765,427,737,570.0711856,56.052370259999996,310,0.355126977,48.51091385,20.54416914,7.435404067,48.15578687,1145.47,1138.55,45.09726845,44.82482736,
,Int,VDEQ_BUG,6APNK008.28,,37.08305555,-82.69666667,Off Rt. 671 above old Flat Gap School,69,Central Appalachians,69d,Dissected Appalachian Plateau,BS28,SWRO,Southwest,North Fork Pound River-South Fork Pound River,N,BS,South Fork Pound River-North Fork Pound River,0507020205,Tennessee and Big Sandy River Basin,6A,Tennessee-Big Sandy,Wise,195,050702020501,RL_6A_004362,IV,PWS,Yes,,,,,,,,,,,,,,,,,,,
,Int,VDEQ_BUG,6APNR023.86,,37.16416667,-82.525,POUND RIVER AND 624 BRIDGE IN NORLAND,69,Central Appalachians,69d,Dissected Appalachian Plateau,BS30,SWRO,Southwest,Pound River-John W Flannagan Reservoir-Cane Creek,N,BS,Cane Creek-John W Flannagan Reservoir,0507020205,Tennessee and Big Sandy River Basin,6A,Tennessee-Big Sandy,Dickenson,051,050702020503,RL_6A_012932,IV,,,,,,,,,,,,,,,,,,,,,
,Int,VDEQ_BUG,6ARLF000.06,6ARLF000.06_2012,37.115,-82.44111111,West of Bise Ridge,69,Central Appalachians,69d,Dissected Appalachian Plateau,BS33,SWRO,Southwest,Cranesnest River-John W Flannagan Reservoir-Lick Fork,N,BS,Lick Fork-John W Flannagan Reservoir,0507020205,Tennessee and Big Sandy River Basin,6A,Tennessee-Big Sandy,Dickenson,051,050702020506,RL_6A_012655,IV,,,,,1,2.043616518,453,703,628.6327127,57.03838524,250,0,55.86745453,15.93559143,8.645573955,55.86745453,1154.65,1159.1,45.45868597,45.63388291,
,Int,VDEQ_BUG,6ARLF000.06,6ARLF000.06_2014,37.115,-82.44111111,West of Bise Ridge,69,Central Appalachians,69d,Dissected Appalachian Plateau,BS33,SWRO,Southwest,Cranesnest River-John W Flannagan Reservoir-Lick Fork,N,BS,Lick Fork-John W Flannagan Reservoir,0507020205,Tennessee and Big Sandy River Basin,6A,Tennessee-Big Sandy,Dickenson,051,050702020506,RL_6A_012655,IV,,,,,1,2.043616518,453,703,628.6327127,57.03838524,250,0,55.86745453,15.93559143,8.645573955,55.86745453,1154.65,1159.1,45.45868597,45.63388291,
,Int,VDEQ_BUG,6ARLF000.06,6ARLF000.06_2016,37.115,-82.44111111,West of Bise Ridge,69,Central Appalachians,69d,Dissected Appalachian Plateau,BS33,SWRO,Southwest,Cranesnest River-John W Flannagan Reservoir-Lick Fork,N,BS,Lick Fork-John W Flannagan Reservoir,0507020205,Tennessee and Big Sandy River Basin,6A,Tennessee-Big Sandy,Dickenson,051,050702020506,RL_6A_012655,IV,,,,,1,2.043616518,453,703,628.6327127,57.03838524,250,0,55.86745453,15.93559143,8.645573955,55.86745453,1154.65,1159.1,45.45868597,45.63388291,
,Int,VDEQ_BUG,6ASAT000.26,,37.2775,-82.09666667,Walk Bri. # 9000 across from Law School,69,Central Appalachians,69d,Dissected Appalachian Plateau,BS13,SWRO,Southwest,Slate Creek,N,BS,Slate Creek,0507020201,Tennessee and Big Sandy River Basin,6A,Tennessee-Big Sandy,Buchanan,027,050702020106,RL_6A_025512,IV,,,,,,,,,,,,,,,,,,,,,
,Int,VDEQ_BUG,6ASAT003.60,6ASAT003.60_2010,37.29138889,-82.06333333,North of Grundy High School,69,Central Appalachians,69d,Dissected Appalachian Plateau,BS13,SWRO,Southwest,Slate Creek,N,BS,Slate Creek,0507020201,Tennessee and Big Sandy River Basin,6A,Tennessee-Big Sandy,Buchanan,027,050702020106,,,,,,,3,34.72945048,355,783,602.2772891,83.59518752,428,0,46.2641449,20.83921023,7.820191694,46.2641449,13965.46,1106.46,549.8215567,43.56144085,
,Int,VDEQ_BUG,6ASAT011.43,6ASAT011.43_2013,37.30859722,-81.9537,Off Rt. 83 Upstream of Payne Branch,69,Central Appalachians,69d,Dissected Appalachian Plateau,BS13,SWRO,Southwest,Slate Creek,N,BS,Slate Creek,0507020201,Tennessee and Big Sandy River Basin,6A,Tennessee-Big Sandy,Buchanan,027,050702020106,RL_6A_026130,IV,,,,,2,12.04729014,462,783,648.9561711,62.39624884,321,0,42.337165830000004,19.03967607,7.43002266,42.337165830000004,4783.88,1178.52,188.341834,46.39845025,
,Int,VDEQ_BUG,6ASLV000.85,6ASLV000.85_2006,37.09027778,-82.17222222,W of Duty off Rt 80,69,Central Appalachians,69d,Dissected Appalachian Plateau,BS17,SWRO,Southwest,Indian Creek-Cane Creek,N,BS,Cane Creek-Indian Creek,0507020204,Tennessee and Big Sandy River Basin,6A,Tennessee-Big Sandy,Dickenson,051,050702020402,RL_6A_014705,IV,,,,,1,0.674208095,500,760,630.4679368,57.86880506,260,0.355126977,40.20331573,21.67060883,7.799365308,39.84818876,2310.54,1165.83,90.96619085,45.89884368,
